{"oclcSymbol":"DRB","registryId":1742,"institutionName":"Dartmouth Library","institutionType":"ACADEMIC","street1":"6025 Baker-Berry Library","city":"Hanover","state":"US-NH","postalCode":"03755-3525","country":"US","latitude":43.705456,"longitude":-72.28883,"distance":5884.030903835973,"distanceUnit":"K","oclcNumber":"1060403624"},{"oclcSymbol":"HUL","registryId":73876,"institutionName":"Harvard University","institutionType":"ACADEMIC","alsoCalled":"Harvard Library","street1":"Harvard University","city":"Cambridge","state":"US-MA","postalCode":"02138","country":"US","latitude":42.379486,"longitude":-71.11653,"distance":5898.670972048441,"distanceUnit":"K","oclcNumber":"1060403624"},{"oclcSymbol":"MLN","registryId":86798,"institutionName":"Minuteman Library Network","institutionType":"LIBRARY_NETWORK_GROUP","street1":"10 Strathmore Rd","city":"Natick","state":"US-MA","postalCode":"01760","country":"US","latitude":42.28951,"longitude":-71.35502,"distance":5920.2835824333615,"distanceUnit":"K","oclcNumber":"1060403624"},{"oclcSymbol":"ZCY","registryId":4853,"institutionName":"City University of New York","institutionType":"ACADEMIC","alsoCalled":"CUNY","street1":"535 East 80th St.","city":"New York","state":"US-NY","postalCode":"10021-0795","country":"US","latitude":40.77144,"longitude":-73.94783,"distance":6194.219801844909,"distanceUnit":"K","oclcNumber":"1060403624"},{"oclcSymbol":"ZHM","registryId":1894,"institutionName":"Hunter College","institutionType":"ACADEMIC","alsoCalled":"Jacqueline Grennan Wexler Library","street1":"695 Park Avenue","city":"New York","state":"US-NY","postalCode":"10021","country":"US","latitude":40.768867,"longitude":-73.96511,"distance":6195.522386758747,"distanceUnit":"K","oclcNumber":"1060403624"},{"oclcSymbol":"CGU","registryId":110147,"institutionName":"University of Chicago Library","institutionType":"ACADEMIC","street1":"1100 E. 57th Street","city":"Chicago","state":"US-IL","postalCode":"60637","country":"US","latitude":41.792255,"longitude":-87.599976,"distance":6968.537876102337,"distanceUnit":"K","oclcNumber":"1060403624"},{"oclcSymbol":"MNU","registryId":5360,"institutionName":"University of Minnesota, Twin Cities","institutionType":"ACADEMIC","street1":"499 Wilson Libr","street2":"309 19th Ave S","city":"Minneapolis","state":"US-MN","postalCode":"55455-0414","country":"US","latitude":44.976074,"longitude":-93.23086,"distance":7042.418768240276,"distanceUnit":"K","oclcNumber":"1060403624"},{"oclcSymbol":"TXN","registryId":15584,"institutionName":"Houston Public Library","institutionType":"PUBLIC","alsoCalled":"Central Library","street1":"500 McKinney","city":"Houston","state":"US-TX","postalCode":"77002","country":"US","latitude":29.75949,"longitude":-95.369385,"distance":8425.414331622269,"distanceUnit":"K","oclcNumber":"1060403624"},{"oclcSymbol":"JRY","registryId":6574,"institutionName":"Santa Clara County Library District","institutionType":"PUBLIC","street1":"1370 Dell Avenue","city":"Campbell","state":"US-CA","postalCode":"95008","country":"US","latitude":37.266163,"longitude":-121.95376,"distance":9161.597393508158,"distanceUnit":"K","oclcNumber":"1060403624"},{"oclcSymbol":"SINLB","registryId":63464,"institutionName":"National Library Board, Singapore","institutionType":"REGIONAL_OR_NATIONAL","street1":"National Library Board,","street2":"100 Victoria Street, #14-01, National Library Building","city":"Singapore","postalCode":"188064","country":"SG","latitude":1.297366,"longitude":103.85384,"distance":10264.410371761638,"distanceUnit":"K","oclcNumber":"1060403624"},{"oclcSymbol":"AUBRI","registryId":40237,"institutionName":"Brisbane City Council Library Services","institutionType":"PUBLIC","alsoCalled":"BCC","street1":"266 George Street","city":"Brisbane","state":"AU-QL","postalCode":"4000","country":"AU","latitude":-27.471134,"longitude":153.02243,"distance":16089.881720847356,"distanceUnit":"K","oclcNumber":"1060403624"},{"oclcSymbol":"YPR","registryId":70862,"institutionName":"Yarra Plenty Regional Library Service","institutionType":"PUBLIC","city":"Bundoora","postalCode":"VIC 3083","country":"AU","latitude":-37.6987,"longitude":145.05486,"distance":16319.305756783893,"distanceUnit":"K","oclcNumber":"1060403624"},{"oclcSymbol":"ATVCM","registryId":110148,"institutionName":"Melbourne Library Service","institutionType":"PUBLIC","alsoCalled":"City of Melbourne Libraries","street1":"253 Flinders Ln.","city":"Melbourne","state":"AU-VI","postalCode":"3000","country":"AU","latitude":-37.81694,"longitude":144.96584,"distance":16320.725309896352,"distanceUnit":"K","oclcNumber":"1060403624"},{"oclcSymbol":"ATVDG","registryId":97059,"institutionName":"Springvale Library and Information Service","institutionType":"REGIONAL_OR_NATIONAL","street1":"Springvale Libr &amp; Inf Svc","street2":"Private Bag 75","city":"Springvale","postalCode":"VIC 3171","country":"AU","latitude":-37.94764,"longitude":145.1531,"distance":16342.560130270977,"distanceUnit":"K","oclcNumber":"1060403624"},{"oclcSymbol":"ATVCC","registryId":23154,"institutionName":"Casey-Cardinia Library Corp","institutionType":"PUBLIC","alsoCalled":"Cranbourne Library","street1":"Locked Bag 2400","city":"Cranbourne","postalCode":"VIC 3977","country":"AU","latitude":-38.08089,"longitude":145.26562,"distance":16359.219981607384,"distanceUnit":"K","oclcNumber":"1060403624"},{"oclcSymbol":"ATNHO","registryId":93878,"institutionName":"Cumberland Council Library Service","institutionType":"PUBLIC","alsoCalled":"Holroyd City Council Library Service","street1":"Locked Bag No 5","city":"Merrylands","postalCode":"NSW 2160","country":"AU","latitude":-33.838272,"longitude":150.98973,"distance":16464.382174216073,"distanceUnit":"K","oclcNumber":"1060403624"},{"oclcSymbol":"ATBCL","registryId":40094,"institutionName":"Bankstown City Library &amp; Information Srv","institutionType":"LIBRARY_NETWORK_GROUP","alsoCalled":"Bankstown City Library and Information Service","street1":"62 The Mall","city":"Bankstown","state":"AU-NS","postalCode":"2200","country":"AU","latitude":-33.916348,"longitude":151.03485,"distance":16473.293403488427,"distanceUnit":"K","oclcNumber":"1060403624"},{"oclcSymbol":"ATNMM","registryId":95004,"institutionName":"Marrickville Council Library Service","institutionType":"PUBLIC","alsoCalled":"Marrickville Library","street1":"Petersham Rd","city":"Marrickville","postalCode":"NSW 2204","country":"AU","latitude":-33.909847,"longitude":151.15434,"distance":16480.990398727576,"distanceUnit":"K","oclcNumber":"1060403624"},{"oclcSymbol":"NZAUC","registryId":58181,"institutionName":"Auckland Libraries","institutionType":"PUBLIC","street1":"Central City Library","street2":"44-46 Lorne Street","city":"Auckland","postalCode":"1010","country":"NZ","latitude":-36.851765,"longitude":174.76541,"distance":18166.661566410658,"distanceUnit":"K","oclcNumber":"1060403624"},{"oclcSymbol":"NZCPL","registryId":21495,"institutionName":"Christchurch City Libraries","institutionType":"PUBLIC","street1":"60 Cathedral Square","city":"Christchurch","postalCode":"8011","country":"NZ","latitude":-43.530132,"longitude":172.63716,"distance":18594.698764266243,"distanceUnit":"K","oclcNumber":"1060403624"},{"oclcSymbol":"DRB","registryId":1742,"institutionName":"Dartmouth Library","institutionType":"ACADEMIC","street1":"6025 Baker-Berry Library","city":"Hanover","state":"US-NH","postalCode":"03755-3525","country":"US","latitude":43.705456,"longitude":-72.28883,"distance":5884.030903835973,"distanceUnit":"K","oclcNumber":"1028596346"},{"oclcSymbol":"HUL","registryId":73876,"institutionName":"Harvard University","institutionType":"ACADEMIC","alsoCalled":"Harvard Library","street1":"Harvard University","city":"Cambridge","state":"US-MA","postalCode":"02138","country":"US","latitude":42.379486,"longitude":-71.11653,"distance":5898.670972048441,"distanceUnit":"K","oclcNumber":"1028596346"},{"oclcSymbol":"ZCU","registryId":4861,"institutionName":"Columbia University in the City of New York","institutionType":"ACADEMIC","alsoCalled":"Columbia University Libraries","street1":"535 West 114th Street","city":"New York","state":"US-NY","postalCode":"10027-7035","country":"US","latitude":40.806236,"longitude":-73.96326,"distance":6192.750022328971,"distanceUnit":"K","oclcNumber":"1028596346"},{"oclcSymbol":"NYP","registryId":58122,"institutionName":"New York Public Library System","institutionType":"PUBLIC","alsoCalled":"NYPL","street1":"Fifth Avenue at 42nd Street","city":"New York","state":"US-NY","postalCode":"10018-2788","country":"US","latitude":40.753498,"longitude":-73.98089,"distance":6197.636374105711,"distanceUnit":"K","oclcNumber":"1028596346"},{"oclcSymbol":"ZYU","registryId":1976,"institutionName":"New York University","institutionType":"ACADEMIC","alsoCalled":"Elmer Holmes Bobst Library","street1":"70 Washington Square South","city":"New York","state":"US-NY","postalCode":"10012","country":"US","latitude":40.729427,"longitude":-73.99722,"distance":6200.4045332524265,"distanceUnit":"K","oclcNumber":"1028596346"},{"oclcSymbol":"COO","registryId":3913,"institutionName":"Cornell University Library","institutionType":"ACADEMIC","street1":"201 Olin Library","city":"Ithaca","state":"US-NY","postalCode":"14853-5301","country":"US","latitude":42.44667,"longitude":-76.495735,"distance":6238.384448048609,"distanceUnit":"K","oclcNumber":"1028596346"},{"oclcSymbol":"PUL","registryId":1791,"institutionName":"Princeton University Library","institutionType":"ACADEMIC","alsoCalled":"Firestone Library","street1":"1 Washington Rd","city":"Princeton","state":"US-NJ","postalCode":"08544-2098","country":"US","latitude":40.349854,"longitude":-74.65912,"distance":6270.382818212047,"distanceUnit":"K","oclcNumber":"1028596346"},{"oclcSymbol":"DLC","registryId":45266,"institutionName":"Library of Congress","institutionType":"REGIONAL_OR_NATIONAL","street1":"101 Independence Avenue, SE","city":"Washington","state":"US-DC","postalCode":"20540","country":"US","latitude":38.88863,"longitude":-77.00475,"distance":6528.602785373047,"distanceUnit":"K","oclcNumber":"1028596346"},{"oclcSymbol":"LNN","registryId":114986,"institutionName":"Library of Congress, Cataloging Directorate","institutionType":"REGIONAL_OR_NATIONAL","street1":"101 Independence Avenue, SE","city":"Washington","state":"US-DC","postalCode":"20540","country":"US","latitude":38.88697,"longitude":-77.00466,"distance":6528.719426450103,"distanceUnit":"K","oclcNumber":"1028596346"},{"oclcSymbol":"OBE","registryId":2304,"institutionName":"Oberlin College Libraries","institutionType":"ACADEMIC","street1":"148 West College Street","city":"Oberlin","state":"US-OH","postalCode":"44074-1532","country":"US","latitude":41.292927,"longitude":-82.2228,"distance":6680.410813469558,"distanceUnit":"K","oclcNumber":"1028596346"},{"oclcSymbol":"OSU","registryId":2315,"institutionName":"Ohio State University Libraries","institutionType":"ACADEMIC","street1":"1858 Neil Avenue","city":"Columbus","state":"US-OH","postalCode":"43210","country":"US","latitude":39.99908,"longitude":-83.01568,"distance":6827.137620801146,"distanceUnit":"K","oclcNumber":"1028596346"},{"oclcSymbol":"CGU","registryId":110147,"institutionName":"University of Chicago Library","institutionType":"ACADEMIC","street1":"1100 E. 57th Street","city":"Chicago","state":"US-IL","postalCode":"60637","country":"US","latitude":41.792255,"longitude":-87.599976,"distance":6968.537876102337,"distanceUnit":"K","oclcNumber":"1028596346"},{"oclcSymbol":"GZM","registryId":91572,"institutionName":"University of Wisconsin - Madison General Library System","institutionType":"ACADEMIC","street1":"Memorial Library","street2":"728 State Street","city":"Madison","state":"US-WI","postalCode":"53706","country":"US","latitude":43.075436,"longitude":-89.397865,"distance":6974.53449098745,"distanceUnit":"K","oclcNumber":"1028596346"},{"oclcSymbol":"MNU","registryId":5360,"institutionName":"University of Minnesota, Twin Cities","institutionType":"ACADEMIC","street1":"499 Wilson Libr","street2":"309 19th Ave S","city":"Minneapolis","state":"US-MN","postalCode":"55455-0414","country":"US","latitude":44.976074,"longitude":-93.23086,"distance":7042.418768240276,"distanceUnit":"K","oclcNumber":"1028596346"},{"oclcSymbol":"NUI","registryId":57888,"institutionName":"University of Iowa Libraries","institutionType":"ACADEMIC","street1":"125 W Washington St.","city":"Iowa City","state":"US-IA","postalCode":"52242-1479","country":"US","latitude":41.659412,"longitude":-91.53811,"distance":7210.150876398513,"distanceUnit":"K","oclcNumber":"1028596346"},{"oclcSymbol":"EMU","registryId":699,"institutionName":"Emory University","institutionType":"ACADEMIC","alsoCalled":"Robert W. Woodruff Library (Woodruff Main Library)","street1":"Robert W. Woodruff Library","street2":"540 Asbury Circle, NE","city":"Atlanta","state":"US-GA","postalCode":"30322","country":"US","latitude":33.79044,"longitude":-84.32282,"distance":7393.571775966326,"distanceUnit":"K","oclcNumber":"1028596346"},{"oclcSymbol":"UBC","registryId":65595,"institutionName":"University of British Columbia Library","institutionType":"ACADEMIC","street1":"Irving K. Barber Learning Centre","street2":"1956 Main Mall","city":"Vancouver","state":"CA-BC","postalCode":"V6T 1Z1","country":"CA","latitude":49.267506,"longitude":-123.25255,"distance":8053.47483756799,"distanceUnit":"K","oclcNumber":"1028596346"},{"oclcSymbol":"COD","registryId":462,"institutionName":"University of Colorado Boulder","institutionType":"ACADEMIC","alsoCalled":"CU Boulder","street1":"184 UCB, 1720 Pleasant Street","city":"Boulder","state":"US-CO","postalCode":"80309-0184","country":"US","latitude":40.008705,"longitude":-105.27088,"distance":8106.375828967922,"distanceUnit":"K","oclcNumber":"1028596346"},{"oclcSymbol":"IXA","registryId":2929,"institutionName":"University of Texas Libraries","institutionType":"ACADEMIC","alsoCalled":"University of Texas Libraries","street1":"101 E 21st St","street2":"University of Texas Libraries; P. O. Box P","city":"Austin","state":"US-TX","postalCode":"78713-8916","country":"US","latitude":30.282782,"longitude":-97.738174,"distance":8525.810305864448,"distanceUnit":"K","oclcNumber":"1028596346"},{"oclcSymbol":"CUV","registryId":5697,"institutionName":"University of California, Davis","institutionType":"ACADEMIC","alsoCalled":"Shields Library","street1":"100 NW Quad","city":"Davis","state":"US-CA","postalCode":"95616-5292","country":"US","latitude":38.539604,"longitude":-121.749374,"distance":9029.526591310521,"distanceUnit":"K","oclcNumber":"1028596346"},{"oclcSymbol":"AZS","registryId":40437,"institutionName":"Arizona State University Library","institutionType":"ACADEMIC","street1":"ASU Libraries","street2":"PO Box 871006","city":"Tempe","state":"US-AZ","postalCode":"85287-1006","country":"US","latitude":33.42113,"longitude":-111.92893,"distance":9046.99734545789,"distanceUnit":"K","oclcNumber":"1028596346"},{"oclcSymbol":"STF","registryId":3227,"institutionName":"Stanford University Libraries","institutionType":"ACADEMIC","street1":"Green Library","street2":"Arguello Way","city":"Stanford","state":"US-CA","postalCode":"94305-6004","country":"US","latitude":37.43137,"longitude":-122.16892,"distance":9154.907042870153,"distanceUnit":"K","oclcNumber":"1028596346"},{"oclcSymbol":"CLU","registryId":207,"institutionName":"University of California, Los Angeles","institutionType":"ACADEMIC","street1":"280 Charles E. Young Dr.","city":"Los Angeles","state":"US-CA","postalCode":"90255","country":"US","latitude":34.07501,"longitude":-118.441185,"distance":9308.793889187069,"distanceUnit":"K","oclcNumber":"1028596346"},{"oclcSymbol":"CUT","registryId":211,"institutionName":"University of California, Santa Barbara","institutionType":"ACADEMIC","alsoCalled":"UCSB Library","street1":"UCSB Library","street2":"525 UCEN Road","city":"Santa Barbara","state":"US-CA","postalCode":"93106-9010","country":"US","latitude":34.41369,"longitude":-119.84556,"distance":9342.136625496658,"distanceUnit":"K","oclcNumber":"1028596346"},{"oclcSymbol":"LOA","registryId":53921,"institutionName":"SOAS University of London","institutionType":"ACADEMIC","alsoCalled":"University of London, School of Oriental and African Studies","street1":"Thornhaugh Street","street2":"Russell Square","city":"London","postalCode":"WC1H 0XG","country":"GB","latitude":51.52235,"longitude":-0.129275,"distance":638.0296394410018,"distanceUnit":"K","oclcNumber":"1080516144"},{"oclcSymbol":"HUL","registryId":73876,"institutionName":"Harvard University","institutionType":"ACADEMIC","alsoCalled":"Harvard Library","street1":"Harvard University","city":"Cambridge","state":"US-MA","postalCode":"02138","country":"US","latitude":42.379486,"longitude":-71.11653,"distance":5898.670972048441,"distanceUnit":"K","oclcNumber":"1080516144"},{"oclcSymbol":"RBN","registryId":105271,"institutionName":"Brown University","institutionType":"ACADEMIC","alsoCalled":"Brown University Library","street1":"10 Prospect Street","street2":"Box A","city":"Providence","state":"US-RI","postalCode":"02912","country":"US","latitude":41.82642,"longitude":-71.40051,"distance":5955.0254414322635,"distanceUnit":"K","oclcNumber":"1080516144"},{"oclcSymbol":"YUS","registryId":544,"institutionName":"Yale University Library","institutionType":"ACADEMIC","street1":"Sterling Mem Libr 130 Wall St","street2":"PO Box 208240","city":"New Haven","state":"US-CT","postalCode":"06520-8240","country":"US","latitude":41.309837,"longitude":-72.92811,"distance":6090.136001032786,"distanceUnit":"K","oclcNumber":"1080516144"},{"oclcSymbol":"ZCU","registryId":4861,"institutionName":"Columbia University in the City of New York","institutionType":"ACADEMIC","alsoCalled":"Columbia University Libraries","street1":"535 West 114th Street","city":"New York","state":"US-NY","postalCode":"10027-7035","country":"US","latitude":40.806236,"longitude":-73.96326,"distance":6192.750022328971,"distanceUnit":"K","oclcNumber":"1080516144"},{"oclcSymbol":"COO","registryId":3913,"institutionName":"Cornell University Library","institutionType":"ACADEMIC","street1":"201 Olin Library","city":"Ithaca","state":"US-NY","postalCode":"14853-5301","country":"US","latitude":42.44667,"longitude":-76.495735,"distance":6238.384448048609,"distanceUnit":"K","oclcNumber":"1080516144"},{"oclcSymbol":"DLC","registryId":45266,"institutionName":"Library of Congress","institutionType":"REGIONAL_OR_NATIONAL","street1":"101 Independence Avenue, SE","city":"Washington","state":"US-DC","postalCode":"20540","country":"US","latitude":38.88863,"longitude":-77.00475,"distance":6528.602785373047,"distanceUnit":"K","oclcNumber":"1080516144"},{"oclcSymbol":"LNN","registryId":114986,"institutionName":"Library of Congress, Cataloging Directorate","institutionType":"REGIONAL_OR_NATIONAL","street1":"101 Independence Avenue, SE","city":"Washington","state":"US-DC","postalCode":"20540","country":"US","latitude":38.88697,"longitude":-77.00466,"distance":6528.719426450103,"distanceUnit":"K","oclcNumber":"1080516144"},{"oclcSymbol":"OBE","registryId":2304,"institutionName":"Oberlin College Libraries","institutionType":"ACADEMIC","street1":"148 West College Street","city":"Oberlin","state":"US-OH","postalCode":"44074-1532","country":"US","latitude":41.292927,"longitude":-82.2228,"distance":6680.410813469558,"distanceUnit":"K","oclcNumber":"1080516144"},{"oclcSymbol":"CGU","registryId":110147,"institutionName":"University of Chicago Library","institutionType":"ACADEMIC","street1":"1100 E. 57th Street","city":"Chicago","state":"US-IL","postalCode":"60637","country":"US","latitude":41.792255,"longitude":-87.599976,"distance":6968.537876102337,"distanceUnit":"K","oclcNumber":"1080516144"},{"oclcSymbol":"MNU","registryId":5360,"institutionName":"University of Minnesota, Twin Cities","institutionType":"ACADEMIC","street1":"499 Wilson Libr","street2":"309 19th Ave S","city":"Minneapolis","state":"US-MN","postalCode":"55455-0414","country":"US","latitude":44.976074,"longitude":-93.23086,"distance":7042.418768240276,"distanceUnit":"K","oclcNumber":"1080516144"},{"oclcSymbol":"UIU","registryId":5415,"institutionName":"University of Illinois at Urbana Champaign","institutionType":"ACADEMIC","street1":"1408 W Gregory Dr","street2":"128 Main Libr Mc 522","city":"Urbana","state":"US-IL","postalCode":"61801-3692","country":"US","latitude":40.10469,"longitude":-88.227066,"distance":7137.761295036732,"distanceUnit":"K","oclcNumber":"1080516144"},{"oclcSymbol":"NUI","registryId":57888,"institutionName":"University of Iowa Libraries","institutionType":"ACADEMIC","street1":"125 W Washington St.","city":"Iowa City","state":"US-IA","postalCode":"52242-1479","country":"US","latitude":41.659412,"longitude":-91.53811,"distance":7210.150876398513,"distanceUnit":"K","oclcNumber":"1080516144"},{"oclcSymbol":"EMU","registryId":699,"institutionName":"Emory University","institutionType":"ACADEMIC","alsoCalled":"Robert W. Woodruff Library (Woodruff Main Library)","street1":"Robert W. Woodruff Library","street2":"540 Asbury Circle, NE","city":"Atlanta","state":"US-GA","postalCode":"30322","country":"US","latitude":33.79044,"longitude":-84.32282,"distance":7393.571775966326,"distanceUnit":"K","oclcNumber":"1080516144"},{"oclcSymbol":"CNZJL","registryId":37796,"institutionName":"Zhejiang Library","institutionType":"ACADEMIC","street1":"73 Shunguang Rd","city":"Hangzhou","postalCode":"310007","country":"CN","latitude":30.252625,"longitude":120.16508,"distance":8829.489417753091,"distanceUnit":"K","oclcNumber":"1080516144"},{"oclcSymbol":"STF","registryId":3227,"institutionName":"Stanford University Libraries","institutionType":"ACADEMIC","street1":"Green Library","street2":"Arguello Way","city":"Stanford","state":"US-CA","postalCode":"94305-6004","country":"US","latitude":37.43137,"longitude":-122.16892,"distance":9154.907042870153,"distanceUnit":"K","oclcNumber":"1080516144"},{"oclcSymbol":"ZAS","registryId":5620,"institutionName":"University of California Los Angeles","institutionType":"ACADEMIC","alsoCalled":"Southern Regional Library Facility","street1":"Southern Regional Libr Fac","street2":"305 de Neve Drive, Box 951388","city":"Los Angeles","state":"US-CA","postalCode":"90095-1388","country":"US","latitude":34.05678,"longitude":-118.24259,"distance":9301.110233238789,"distanceUnit":"K","oclcNumber":"1080516144"},{"oclcSymbol":"CLU","registryId":207,"institutionName":"University of California, Los Angeles","institutionType":"ACADEMIC","street1":"280 Charles E. Young Dr.","city":"Los Angeles","state":"US-CA","postalCode":"90255","country":"US","latitude":34.07501,"longitude":-118.441185,"distance":9308.793889187069,"distanceUnit":"K","oclcNumber":"1080516144"},{"oclcSymbol":"HUL","registryId":73876,"institutionName":"Harvard University","institutionType":"ACADEMIC","alsoCalled":"Harvard Library","street1":"Harvard University","city":"Cambridge","state":"US-MA","postalCode":"02138","country":"US","latitude":42.379486,"longitude":-71.11653,"distance":5898.670972048441,"distanceUnit":"K","oclcNumber":"1042458937"},{"oclcSymbol":"YUS","registryId":544,"institutionName":"Yale University Library","institutionType":"ACADEMIC","street1":"Sterling Mem Libr 130 Wall St","street2":"PO Box 208240","city":"New Haven","state":"US-CT","postalCode":"06520-8240","country":"US","latitude":41.309837,"longitude":-72.92811,"distance":6090.136001032786,"distanceUnit":"K","oclcNumber":"1042458937"},{"oclcSymbol":"ZCU","registryId":4861,"institutionName":"Columbia University in the City of New York","institutionType":"ACADEMIC","alsoCalled":"Columbia University Libraries","street1":"535 West 114th Street","city":"New York","state":"US-NY","postalCode":"10027-7035","country":"US","latitude":40.806236,"longitude":-73.96326,"distance":6192.750022328971,"distanceUnit":"K","oclcNumber":"1042458937"},{"oclcSymbol":"NYP","registryId":58122,"institutionName":"New York Public Library System","institutionType":"PUBLIC","alsoCalled":"NYPL","street1":"Fifth Avenue at 42nd Street","city":"New York","state":"US-NY","postalCode":"10018-2788","country":"US","latitude":40.753498,"longitude":-73.98089,"distance":6197.636374105711,"distanceUnit":"K","oclcNumber":"1042458937"},{"oclcSymbol":"COO","registryId":3913,"institutionName":"Cornell University Library","institutionType":"ACADEMIC","street1":"201 Olin Library","city":"Ithaca","state":"US-NY","postalCode":"14853-5301","country":"US","latitude":42.44667,"longitude":-76.495735,"distance":6238.384448048609,"distanceUnit":"K","oclcNumber":"1042458937"},{"oclcSymbol":"DLC","registryId":45266,"institutionName":"Library of Congress","institutionType":"REGIONAL_OR_NATIONAL","street1":"101 Independence Avenue, SE","city":"Washington","state":"US-DC","postalCode":"20540","country":"US","latitude":38.88863,"longitude":-77.00475,"distance":6528.602785373047,"distanceUnit":"K","oclcNumber":"1042458937"},{"oclcSymbol":"LNN","registryId":114986,"institutionName":"Library of Congress, Cataloging Directorate","institutionType":"REGIONAL_OR_NATIONAL","street1":"101 Independence Avenue, SE","city":"Washington","state":"US-DC","postalCode":"20540","country":"US","latitude":38.88697,"longitude":-77.00466,"distance":6528.719426450103,"distanceUnit":"K","oclcNumber":"1042458937"},{"oclcSymbol":"PIT","registryId":2593,"institutionName":"University of Pittsburgh","institutionType":"ACADEMIC","street1":"4200 Fifth Ave","street2":"3960 Forbes Ave","city":"Pittsburgh","state":"US-PA","postalCode":"15260","country":"US","latitude":40.44312,"longitude":-79.95592,"distance":6602.220438001183,"distanceUnit":"K","oclcNumber":"1042458937"},{"oclcSymbol":"CGU","registryId":110147,"institutionName":"University of Chicago Library","institutionType":"ACADEMIC","street1":"1100 E. 57th Street","city":"Chicago","state":"US-IL","postalCode":"60637","country":"US","latitude":41.792255,"longitude":-87.599976,"distance":6968.537876102337,"distanceUnit":"K","oclcNumber":"1042458937"},{"oclcSymbol":"UAB","registryId":65567,"institutionName":"University of Alberta","institutionType":"ACADEMIC","alsoCalled":"University of Alberta Library","street1":"5-02 Cameron Libr","city":"Edmonton","state":"CA-AB","postalCode":"T6G 2J8","country":"CA","latitude":53.526733,"longitude":-113.52361,"distance":7288.342749133143,"distanceUnit":"K","oclcNumber":"1042458937"},{"oclcSymbol":"EMU","registryId":699,"institutionName":"Emory University","institutionType":"ACADEMIC","alsoCalled":"Robert W. Woodruff Library (Woodruff Main Library)","street1":"Robert W. Woodruff Library","street2":"540 Asbury Circle, NE","city":"Atlanta","state":"US-GA","postalCode":"30322","country":"US","latitude":33.79044,"longitude":-84.32282,"distance":7393.571775966326,"distanceUnit":"K","oclcNumber":"1042458937"},{"oclcSymbol":"AZU","registryId":86,"institutionName":"University of Arizona Libraries","institutionType":"ACADEMIC","street1":"1510 E. University Blvd.","city":"Tucson","state":"US-AZ","postalCode":"85721-0055","country":"US","latitude":32.231064,"longitude":-110.94899,"distance":9105.249027734613,"distanceUnit":"K","oclcNumber":"1042458937"},{"oclcSymbol":"STF","registryId":3227,"institutionName":"Stanford University Libraries","institutionType":"ACADEMIC","street1":"Green Library","street2":"Arguello Way","city":"Stanford","state":"US-CA","postalCode":"94305-6004","country":"US","latitude":37.43137,"longitude":-122.16892,"distance":9154.907042870153,"distanceUnit":"K","oclcNumber":"1042458937"},{"oclcSymbol":"ZAS","registryId":5620,"institutionName":"University of California Los Angeles","institutionType":"ACADEMIC","alsoCalled":"Southern Regional Library Facility","street1":"Southern Regional Libr Fac","street2":"305 de Neve Drive, Box 951388","city":"Los Angeles","state":"US-CA","postalCode":"90095-1388","country":"US","latitude":34.05678,"longitude":-118.24259,"distance":9301.110233238789,"distanceUnit":"K","oclcNumber":"1042458937"},{"oclcSymbol":"CLU","registryId":207,"institutionName":"University of California, Los Angeles","institutionType":"ACADEMIC","street1":"280 Charles E. Young Dr.","city":"Los Angeles","state":"US-CA","postalCode":"90255","country":"US","latitude":34.07501,"longitude":-118.441185,"distance":9308.793889187069,"distanceUnit":"K","oclcNumber":"1042458937"},{"oclcSymbol":"HUL","registryId":73876,"institutionName":"Harvard University","institutionType":"ACADEMIC","alsoCalled":"Harvard Library","street1":"Harvard University","city":"Cambridge","state":"US-MA","postalCode":"02138","country":"US","latitude":42.379486,"longitude":-71.11653,"distance":5898.670972048441,"distanceUnit":"K","oclcNumber":"1049933593"},{"oclcSymbol":"ZCU","registryId":4861,"institutionName":"Columbia University in the City of New York","institutionType":"ACADEMIC","alsoCalled":"Columbia University Libraries","street1":"535 West 114th Street","city":"New York","state":"US-NY","postalCode":"10027-7035","country":"US","latitude":40.806236,"longitude":-73.96326,"distance":6192.750022328971,"distanceUnit":"K","oclcNumber":"1049933593"},{"oclcSymbol":"COO","registryId":3913,"institutionName":"Cornell University Library","institutionType":"ACADEMIC","street1":"201 Olin Library","city":"Ithaca","state":"US-NY","postalCode":"14853-5301","country":"US","latitude":42.44667,"longitude":-76.495735,"distance":6238.384448048609,"distanceUnit":"K","oclcNumber":"1049933593"},{"oclcSymbol":"PUL","registryId":1791,"institutionName":"Princeton University Library","institutionType":"ACADEMIC","alsoCalled":"Firestone Library","street1":"1 Washington Rd","city":"Princeton","state":"US-NJ","postalCode":"08544-2098","country":"US","latitude":40.349854,"longitude":-74.65912,"distance":6270.382818212047,"distanceUnit":"K","oclcNumber":"1049933593"},{"oclcSymbol":"DLC","registryId":45266,"institutionName":"Library of Congress","institutionType":"REGIONAL_OR_NATIONAL","street1":"101 Independence Avenue, SE","city":"Washington","state":"US-DC","postalCode":"20540","country":"US","latitude":38.88863,"longitude":-77.00475,"distance":6528.602785373047,"distanceUnit":"K","oclcNumber":"1049933593"},{"oclcSymbol":"LNN","registryId":114986,"institutionName":"Library of Congress, Cataloging Directorate","institutionType":"REGIONAL_OR_NATIONAL","street1":"101 Independence Avenue, SE","city":"Washington","state":"US-DC","postalCode":"20540","country":"US","latitude":38.88697,"longitude":-77.00466,"distance":6528.719426450103,"distanceUnit":"K","oclcNumber":"1049933593"},{"oclcSymbol":"EYM","registryId":5293,"institutionName":"University of Michigan","institutionType":"ACADEMIC","alsoCalled":"University of Michigan - Ann Arbor","street1":"818 Hatcher Graduate Library","street2":"913 S. University Avenue","city":"Ann Arbor","state":"US-MI","postalCode":"48109-1190","country":"US","latitude":42.2763,"longitude":-83.7382,"distance":6699.5468970135225,"distanceUnit":"K","oclcNumber":"1049933593"},{"oclcSymbol":"NOC","registryId":5050,"institutionName":"University of North Carolina at Chapel Hill. University Libraries","institutionType":"ACADEMIC","alsoCalled":"UNC University Libraries","street1":"208 Raleigh Street","street2":"Davis Library CB #3916","city":"Chapel Hill","state":"US-NC","postalCode":"27514-8890","country":"US","latitude":35.91105,"longitude":-79.04806,"distance":6885.3487503915,"distanceUnit":"K","oclcNumber":"1049933593"},{"oclcSymbol":"CGU","registryId":110147,"institutionName":"University of Chicago Library","institutionType":"ACADEMIC","street1":"1100 E. 57th Street","city":"Chicago","state":"US-IL","postalCode":"60637","country":"US","latitude":41.792255,"longitude":-87.599976,"distance":6968.537876102337,"distanceUnit":"K","oclcNumber":"1049933593"},{"oclcSymbol":"COD","registryId":462,"institutionName":"University of Colorado Boulder","institutionType":"ACADEMIC","alsoCalled":"CU Boulder","street1":"184 UCB, 1720 Pleasant Street","city":"Boulder","state":"US-CO","postalCode":"80309-0184","country":"US","latitude":40.008705,"longitude":-105.27088,"distance":8106.375828967922,"distanceUnit":"K","oclcNumber":"1049933593"},{"oclcSymbol":"WAU","registryId":5725,"institutionName":"University of Washington Libraries","institutionType":"ACADEMIC","street1":"Box 352900","city":"Seattle","state":"US-WA","postalCode":"98195-2900","country":"US","latitude":47.65368,"longitude":-122.29911,"distance":8173.278736712033,"distanceUnit":"K","oclcNumber":"1049933593"},{"oclcSymbol":"CNZJL","registryId":37796,"institutionName":"Zhejiang Library","institutionType":"ACADEMIC","street1":"73 Shunguang Rd","city":"Hangzhou","postalCode":"310007","country":"CN","latitude":30.252625,"longitude":120.16508,"distance":8829.489417753091,"distanceUnit":"K","oclcNumber":"1049933593"},{"oclcSymbol":"CUY","registryId":5689,"institutionName":"UC Berkeley Libraries","institutionType":"ACADEMIC","street1":"133 Doe Library","street2":"University of California","city":"Berkeley","state":"US-CA","postalCode":"94720-6000","country":"US","latitude":37.87575,"longitude":-122.24341,"distance":9115.023971148703,"distanceUnit":"K","oclcNumber":"1049933593"},{"oclcSymbol":"STF","registryId":3227,"institutionName":"Stanford University Libraries","institutionType":"ACADEMIC","street1":"Green Library","street2":"Arguello Way","city":"Stanford","state":"US-CA","postalCode":"94305-6004","country":"US","latitude":37.43137,"longitude":-122.16892,"distance":9154.907042870153,"distanceUnit":"K","oclcNumber":"1049933593"},{"oclcSymbol":"CRU","registryId":208,"institutionName":"University of California, Riverside","institutionType":"ACADEMIC","alsoCalled":"UCR","street1":"Ill - Rivera Library / University of California","street2":"3401 Watkins Drive","city":"Riverside","state":"US-CA","postalCode":"92521-0409","country":"US","latitude":33.972725,"longitude":-117.32714,"distance":9265.311926603366,"distanceUnit":"K","oclcNumber":"1049933593"},{"oclcSymbol":"HUL","registryId":73876,"institutionName":"Harvard University","institutionType":"ACADEMIC","alsoCalled":"Harvard Library","street1":"Harvard University","city":"Cambridge","state":"US-MA","postalCode":"02138","country":"US","latitude":42.379486,"longitude":-71.11653,"distance":5898.670972048441,"distanceUnit":"K","oclcNumber":"1040061624"},{"oclcSymbol":"YUS","registryId":544,"institutionName":"Yale University Library","institutionType":"ACADEMIC","street1":"Sterling Mem Libr 130 Wall St","street2":"PO Box 208240","city":"New Haven","state":"US-CT","postalCode":"06520-8240","country":"US","latitude":41.309837,"longitude":-72.92811,"distance":6090.136001032786,"distanceUnit":"K","oclcNumber":"1040061624"},{"oclcSymbol":"ZCU","registryId":4861,"institutionName":"Columbia University in the City of New York","institutionType":"ACADEMIC","alsoCalled":"Columbia University Libraries","street1":"535 West 114th Street","city":"New York","state":"US-NY","postalCode":"10027-7035","country":"US","latitude":40.806236,"longitude":-73.96326,"distance":6192.750022328971,"distanceUnit":"K","oclcNumber":"1040061624"},{"oclcSymbol":"DLC","registryId":45266,"institutionName":"Library of Congress","institutionType":"REGIONAL_OR_NATIONAL","street1":"101 Independence Avenue, SE","city":"Washington","state":"US-DC","postalCode":"20540","country":"US","latitude":38.88863,"longitude":-77.00475,"distance":6528.602785373047,"distanceUnit":"K","oclcNumber":"1040061624"},{"oclcSymbol":"LNN","registryId":114986,"institutionName":"Library of Congress, Cataloging Directorate","institutionType":"REGIONAL_OR_NATIONAL","street1":"101 Independence Avenue, SE","city":"Washington","state":"US-DC","postalCode":"20540","country":"US","latitude":38.88697,"longitude":-77.00466,"distance":6528.719426450103,"distanceUnit":"K","oclcNumber":"1040061624"},{"oclcSymbol":"OBE","registryId":2304,"institutionName":"Oberlin College Libraries","institutionType":"ACADEMIC","street1":"148 West College Street","city":"Oberlin","state":"US-OH","postalCode":"44074-1532","country":"US","latitude":41.292927,"longitude":-82.2228,"distance":6680.410813469558,"distanceUnit":"K","oclcNumber":"1040061624"},{"oclcSymbol":"CGU","registryId":110147,"institutionName":"University of Chicago Library","institutionType":"ACADEMIC","street1":"1100 E. 57th Street","city":"Chicago","state":"US-IL","postalCode":"60637","country":"US","latitude":41.792255,"longitude":-87.599976,"distance":6968.537876102337,"distanceUnit":"K","oclcNumber":"1040061624"},{"oclcSymbol":"CNZJL","registryId":37796,"institutionName":"Zhejiang Library","institutionType":"ACADEMIC","street1":"73 Shunguang Rd","city":"Hangzhou","postalCode":"310007","country":"CN","latitude":30.252625,"longitude":120.16508,"distance":8829.489417753091,"distanceUnit":"K","oclcNumber":"1040061624"},{"oclcSymbol":"CUY","registryId":5689,"institutionName":"UC Berkeley Libraries","institutionType":"ACADEMIC","street1":"133 Doe Library","street2":"University of California","city":"Berkeley","state":"US-CA","postalCode":"94720-6000","country":"US","latitude":37.87575,"longitude":-122.24341,"distance":9115.023971148703,"distanceUnit":"K","oclcNumber":"1040061624"},{"oclcSymbol":"CRU","registryId":208,"institutionName":"University of California, Riverside","institutionType":"ACADEMIC","alsoCalled":"UCR","street1":"Ill - Rivera Library / University of California","street2":"3401 Watkins Drive","city":"Riverside","state":"US-CA","postalCode":"92521-0409","country":"US","latitude":33.972725,"longitude":-117.32714,"distance":9265.311926603366,"distanceUnit":"K","oclcNumber":"1040061624"},{"oclcSymbol":"CLU","registryId":207,"institutionName":"University of California, Los Angeles","institutionType":"ACADEMIC","street1":"280 Charles E. Young Dr.","city":"Los Angeles","state":"US-CA","postalCode":"90255","country":"US","latitude":34.07501,"longitude":-118.441185,"distance":9308.793889187069,"distanceUnit":"K","oclcNumber":"1040061624"},{"oclcSymbol":"HUH","registryId":760,"institutionName":"University of Hawaii at Manoa","institutionType":"ACADEMIC","alsoCalled":"Hamilton Library","street1":"Hamilton Library","street2":"2550 McCarthy Mall","city":"Honolulu","state":"US-HI","postalCode":"96822","country":"US","latitude":21.300537,"longitude":-157.81621,"distance":11962.425698979041,"distanceUnit":"K","oclcNumber":"1040061624"},{"oclcSymbol":"LE1","registryId":87591,"institutionName":"University of Adelaide Library","institutionType":"ACADEMIC","alsoCalled":"Barr Smith Library; University of Adelaide Libraries","street1":"North Terrace","city":"Adelaide","state":"AU-SA","postalCode":"5005","country":"AU","latitude":-34.91935,"longitude":138.60513,"distance":15672.76995773374,"distanceUnit":"K","oclcNumber":"1040061624"},{"oclcSymbol":"UMV","registryId":99063,"institutionName":"University of Melbourne Libraries","institutionType":"ACADEMIC","street1":"Baillieu Library","city":"Parkville","state":"AU-VI","postalCode":"3010","country":"AU","latitude":-37.798367,"longitude":144.95938,"distance":16319.051883096896,"distanceUnit":"K","oclcNumber":"1040061624"},{"oclcSymbol":"NYP","registryId":58122,"institutionName":"New York Public Library System","institutionType":"PUBLIC","alsoCalled":"NYPL","street1":"Fifth Avenue at 42nd Street","city":"New York","state":"US-NY","postalCode":"10018-2788","country":"US","latitude":40.753498,"longitude":-73.98089,"distance":6197.636374105711,"distanceUnit":"K","oclcNumber":"1086331417"},{"oclcSymbol":"ZYU","registryId":1976,"institutionName":"New York University","institutionType":"ACADEMIC","alsoCalled":"Elmer Holmes Bobst Library","street1":"70 Washington Square South","city":"New York","state":"US-NY","postalCode":"10012","country":"US","latitude":40.729427,"longitude":-73.99722,"distance":6200.4045332524265,"distanceUnit":"K","oclcNumber":"1086331417"},{"oclcSymbol":"PAU","registryId":2583,"institutionName":"University of Pennsylvania Libraries","institutionType":"ACADEMIC","alsoCalled":"Penn Libraries","street1":"Library","street2":"3420 Walnut St","city":"Philadelphia","state":"US-PA","postalCode":"19104-6206","country":"US","latitude":39.952724,"longitude":-75.194,"distance":6333.612472191301,"distanceUnit":"K","oclcNumber":"1086331417"},{"oclcSymbol":"DLC","registryId":45266,"institutionName":"Library of Congress","institutionType":"REGIONAL_OR_NATIONAL","street1":"101 Independence Avenue, SE","city":"Washington","state":"US-DC","postalCode":"20540","country":"US","latitude":38.88863,"longitude":-77.00475,"distance":6528.602785373047,"distanceUnit":"K","oclcNumber":"1086331417"},{"oclcSymbol":"LNN","registryId":114986,"institutionName":"Library of Congress, Cataloging Directorate","institutionType":"REGIONAL_OR_NATIONAL","street1":"101 Independence Avenue, SE","city":"Washington","state":"US-DC","postalCode":"20540","country":"US","latitude":38.88697,"longitude":-77.00466,"distance":6528.719426450103,"distanceUnit":"K","oclcNumber":"1086331417"},{"oclcSymbol":"CGU","registryId":110147,"institutionName":"University of Chicago Library","institutionType":"ACADEMIC","street1":"1100 E. 57th Street","city":"Chicago","state":"US-IL","postalCode":"60637","country":"US","latitude":41.792255,"longitude":-87.599976,"distance":6968.537876102337,"distanceUnit":"K","oclcNumber":"1086331417"},{"oclcSymbol":"WTU","registryId":1724,"institutionName":"Washington University in St. Louis","institutionType":"ACADEMIC","alsoCalled":".","street1":"One Brookings Drive, MSC 1061-141-B","city":"St. Louis","state":"US-MO","postalCode":"63130","country":"US","latitude":38.648453,"longitude":-90.307724,"distance":7378.5450160625,"distanceUnit":"K","oclcNumber":"1086331417"},{"oclcSymbol":"UBC","registryId":65595,"institutionName":"University of British Columbia Library","institutionType":"ACADEMIC","street1":"Irving K. Barber Learning Centre","street2":"1956 Main Mall","city":"Vancouver","state":"CA-BC","postalCode":"V6T 1Z1","country":"CA","latitude":49.267506,"longitude":-123.25255,"distance":8053.47483756799,"distanceUnit":"K","oclcNumber":"1086331417"},{"oclcSymbol":"CNZJL","registryId":37796,"institutionName":"Zhejiang Library","institutionType":"ACADEMIC","street1":"73 Shunguang Rd","city":"Hangzhou","postalCode":"310007","country":"CN","latitude":30.252625,"longitude":120.16508,"distance":8829.489417753091,"distanceUnit":"K","oclcNumber":"1086331417"},{"oclcSymbol":"CUV","registryId":5697,"institutionName":"University of California, Davis","institutionType":"ACADEMIC","alsoCalled":"Shields Library","street1":"100 NW Quad","city":"Davis","state":"US-CA","postalCode":"95616-5292","country":"US","latitude":38.539604,"longitude":-121.749374,"distance":9029.526591310521,"distanceUnit":"K","oclcNumber":"1086331417"},{"oclcSymbol":"ZAS","registryId":5620,"institutionName":"University of California Los Angeles","institutionType":"ACADEMIC","alsoCalled":"Southern Regional Library Facility","street1":"Southern Regional Libr Fac","street2":"305 de Neve Drive, Box 951388","city":"Los Angeles","state":"US-CA","postalCode":"90095-1388","country":"US","latitude":34.05678,"longitude":-118.24259,"distance":9301.110233238789,"distanceUnit":"K","oclcNumber":"1086331417"},{"oclcSymbol":"CLU","registryId":207,"institutionName":"University of California, Los Angeles","institutionType":"ACADEMIC","street1":"280 Charles E. Young Dr.","city":"Los Angeles","state":"US-CA","postalCode":"90255","country":"US","latitude":34.07501,"longitude":-118.441185,"distance":9308.793889187069,"distanceUnit":"K","oclcNumber":"1086331417"},{"oclcSymbol":"LGG","registryId":53639,"institutionName":"McGill University Library","institutionType":"ACADEMIC","alsoCalled":"McLennan Library Building","street1":"3459 McTavish Street","street2":"McLennan Library Building","city":"Montreal","state":"CA-QC","postalCode":"H3A0C9","country":"CA","latitude":45.503273,"longitude":-73.57592,"distance":5844.4983291212375,"distanceUnit":"K","oclcNumber":"1042353568"},{"oclcSymbol":"HUL","registryId":73876,"institutionName":"Harvard University","institutionType":"ACADEMIC","alsoCalled":"Harvard Library","street1":"Harvard University","city":"Cambridge","state":"US-MA","postalCode":"02138","country":"US","latitude":42.379486,"longitude":-71.11653,"distance":5898.670972048441,"distanceUnit":"K","oclcNumber":"1042353568"},{"oclcSymbol":"YUS","registryId":544,"institutionName":"Yale University Library","institutionType":"ACADEMIC","street1":"Sterling Mem Libr 130 Wall St","street2":"PO Box 208240","city":"New Haven","state":"US-CT","postalCode":"06520-8240","country":"US","latitude":41.309837,"longitude":-72.92811,"distance":6090.136001032786,"distanceUnit":"K","oclcNumber":"1042353568"},{"oclcSymbol":"PUL","registryId":1791,"institutionName":"Princeton University Library","institutionType":"ACADEMIC","alsoCalled":"Firestone Library","street1":"1 Washington Rd","city":"Princeton","state":"US-NJ","postalCode":"08544-2098","country":"US","latitude":40.349854,"longitude":-74.65912,"distance":6270.382818212047,"distanceUnit":"K","oclcNumber":"1042353568"},{"oclcSymbol":"DLC","registryId":45266,"institutionName":"Library of Congress","institutionType":"REGIONAL_OR_NATIONAL","street1":"101 Independence Avenue, SE","city":"Washington","state":"US-DC","postalCode":"20540","country":"US","latitude":38.88863,"longitude":-77.00475,"distance":6528.602785373047,"distanceUnit":"K","oclcNumber":"1042353568"},{"oclcSymbol":"EYM","registryId":5293,"institutionName":"University of Michigan","institutionType":"ACADEMIC","alsoCalled":"University of Michigan - Ann Arbor","street1":"818 Hatcher Graduate Library","street2":"913 S. University Avenue","city":"Ann Arbor","state":"US-MI","postalCode":"48109-1190","country":"US","latitude":42.2763,"longitude":-83.7382,"distance":6699.5468970135225,"distanceUnit":"K","oclcNumber":"1042353568"},{"oclcSymbol":"CGU","registryId":110147,"institutionName":"University of Chicago Library","institutionType":"ACADEMIC","street1":"1100 E. 57th Street","city":"Chicago","state":"US-IL","postalCode":"60637","country":"US","latitude":41.792255,"longitude":-87.599976,"distance":6968.537876102337,"distanceUnit":"K","oclcNumber":"1042353568"},{"oclcSymbol":"COD","registryId":462,"institutionName":"University of Colorado Boulder","institutionType":"ACADEMIC","alsoCalled":"CU Boulder","street1":"184 UCB, 1720 Pleasant Street","city":"Boulder","state":"US-CO","postalCode":"80309-0184","country":"US","latitude":40.008705,"longitude":-105.27088,"distance":8106.375828967922,"distanceUnit":"K","oclcNumber":"1042353568"},{"oclcSymbol":"WAU","registryId":5725,"institutionName":"University of Washington Libraries","institutionType":"ACADEMIC","street1":"Box 352900","city":"Seattle","state":"US-WA","postalCode":"98195-2900","country":"US","latitude":47.65368,"longitude":-122.29911,"distance":8173.278736712033,"distanceUnit":"K","oclcNumber":"1042353568"},{"oclcSymbol":"CUY","registryId":5689,"institutionName":"UC Berkeley Libraries","institutionType":"ACADEMIC","street1":"133 Doe Library","street2":"University of California","city":"Berkeley","state":"US-CA","postalCode":"94720-6000","country":"US","latitude":37.87575,"longitude":-122.24341,"distance":9115.023971148703,"distanceUnit":"K","oclcNumber":"1042353568"},{"oclcSymbol":"CVU","registryId":87775,"institutionName":"The Chinese University of Hong Kong","institutionType":"ACADEMIC","street1":"CUHK Library","city":"Shatin, N.T.,","country":"HK","latitude":22.419537,"longitude":114.20506,"distance":9150.441171752705,"distanceUnit":"K","oclcNumber":"1042353568"},{"oclcSymbol":"STF","registryId":3227,"institutionName":"Stanford University Libraries","institutionType":"ACADEMIC","street1":"Green Library","street2":"Arguello Way","city":"Stanford","state":"US-CA","postalCode":"94305-6004","country":"US","latitude":37.43137,"longitude":-122.16892,"distance":9154.907042870153,"distanceUnit":"K","oclcNumber":"1042353568"},{"oclcSymbol":"HUL","registryId":73876,"institutionName":"Harvard University","institutionType":"ACADEMIC","alsoCalled":"Harvard Library","street1":"Harvard University","city":"Cambridge","state":"US-MA","postalCode":"02138","country":"US","latitude":42.379486,"longitude":-71.11653,"distance":5898.670972048441,"distanceUnit":"K","oclcNumber":"1024112171"},{"oclcSymbol":"YUS","registryId":544,"institutionName":"Yale University Library","institutionType":"ACADEMIC","street1":"Sterling Mem Libr 130 Wall St","street2":"PO Box 208240","city":"New Haven","state":"US-CT","postalCode":"06520-8240","country":"US","latitude":41.309837,"longitude":-72.92811,"distance":6090.136001032786,"distanceUnit":"K","oclcNumber":"1024112171"},{"oclcSymbol":"NYP","registryId":58122,"institutionName":"New York Public Library System","institutionType":"PUBLIC","alsoCalled":"NYPL","street1":"Fifth Avenue at 42nd Street","city":"New York","state":"US-NY","postalCode":"10018-2788","country":"US","latitude":40.753498,"longitude":-73.98089,"distance":6197.636374105711,"distanceUnit":"K","oclcNumber":"1024112171"},{"oclcSymbol":"ZYU","registryId":1976,"institutionName":"New York University","institutionType":"ACADEMIC","alsoCalled":"Elmer Holmes Bobst Library","street1":"70 Washington Square South","city":"New York","state":"US-NY","postalCode":"10012","country":"US","latitude":40.729427,"longitude":-73.99722,"distance":6200.4045332524265,"distanceUnit":"K","oclcNumber":"1024112171"},{"oclcSymbol":"COO","registryId":3913,"institutionName":"Cornell University Library","institutionType":"ACADEMIC","street1":"201 Olin Library","city":"Ithaca","state":"US-NY","postalCode":"14853-5301","country":"US","latitude":42.44667,"longitude":-76.495735,"distance":6238.384448048609,"distanceUnit":"K","oclcNumber":"1024112171"},{"oclcSymbol":"PUL","registryId":1791,"institutionName":"Princeton University Library","institutionType":"ACADEMIC","alsoCalled":"Firestone Library","street1":"1 Washington Rd","city":"Princeton","state":"US-NJ","postalCode":"08544-2098","country":"US","latitude":40.349854,"longitude":-74.65912,"distance":6270.382818212047,"distanceUnit":"K","oclcNumber":"1024112171"},{"oclcSymbol":"NOC","registryId":5050,"institutionName":"University of North Carolina at Chapel Hill. University Libraries","institutionType":"ACADEMIC","alsoCalled":"UNC University Libraries","street1":"208 Raleigh Street","street2":"Davis Library CB #3916","city":"Chapel Hill","state":"US-NC","postalCode":"27514-8890","country":"US","latitude":35.91105,"longitude":-79.04806,"distance":6885.3487503915,"distanceUnit":"K","oclcNumber":"1024112171"},{"oclcSymbol":"CGU","registryId":110147,"institutionName":"University of Chicago Library","institutionType":"ACADEMIC","street1":"1100 E. 57th Street","city":"Chicago","state":"US-IL","postalCode":"60637","country":"US","latitude":41.792255,"longitude":-87.599976,"distance":6968.537876102337,"distanceUnit":"K","oclcNumber":"1024112171"},{"oclcSymbol":"WAU","registryId":5725,"institutionName":"University of Washington Libraries","institutionType":"ACADEMIC","street1":"Box 352900","city":"Seattle","state":"US-WA","postalCode":"98195-2900","country":"US","latitude":47.65368,"longitude":-122.29911,"distance":8173.278736712033,"distanceUnit":"K","oclcNumber":"1024112171"},{"oclcSymbol":"ORU","registryId":2429,"institutionName":"University of Oregon Libraries","institutionType":"ACADEMIC","alsoCalled":"UO Libraries","street1":"1501 Kincaid Street","street2":"1299 University of Oregon","city":"Eugene","state":"US-OR","postalCode":"97403-1299","country":"US","latitude":44.036083,"longitude":-123.05243,"distance":8551.159351972154,"distanceUnit":"K","oclcNumber":"1024112171"},{"oclcSymbol":"STF","registryId":3227,"institutionName":"Stanford University Libraries","institutionType":"ACADEMIC","street1":"Green Library","street2":"Arguello Way","city":"Stanford","state":"US-CA","postalCode":"94305-6004","country":"US","latitude":37.43137,"longitude":-122.16892,"distance":9154.907042870153,"distanceUnit":"K","oclcNumber":"1024112171"},{"oclcSymbol":"HUL","registryId":73876,"institutionName":"Harvard University","institutionType":"ACADEMIC","alsoCalled":"Harvard Library","street1":"Harvard University","city":"Cambridge","state":"US-MA","postalCode":"02138","country":"US","latitude":42.379486,"longitude":-71.11653,"distance":5898.670972048441,"distanceUnit":"K","oclcNumber":"1086280026"},{"oclcSymbol":"NYP","registryId":58122,"institutionName":"New York Public Library System","institutionType":"PUBLIC","alsoCalled":"NYPL","street1":"Fifth Avenue at 42nd Street","city":"New York","state":"US-NY","postalCode":"10018-2788","country":"US","latitude":40.753498,"longitude":-73.98089,"distance":6197.636374105711,"distanceUnit":"K","oclcNumber":"1086280026"},{"oclcSymbol":"PAU","registryId":2583,"institutionName":"University of Pennsylvania Libraries","institutionType":"ACADEMIC","alsoCalled":"Penn Libraries","street1":"Library","street2":"3420 Walnut St","city":"Philadelphia","state":"US-PA","postalCode":"19104-6206","country":"US","latitude":39.952724,"longitude":-75.194,"distance":6333.612472191301,"distanceUnit":"K","oclcNumber":"1086280026"},{"oclcSymbol":"EYM","registryId":5293,"institutionName":"University of Michigan","institutionType":"ACADEMIC","alsoCalled":"University of Michigan - Ann Arbor","street1":"818 Hatcher Graduate Library","street2":"913 S. University Avenue","city":"Ann Arbor","state":"US-MI","postalCode":"48109-1190","country":"US","latitude":42.2763,"longitude":-83.7382,"distance":6699.5468970135225,"distanceUnit":"K","oclcNumber":"1086280026"},{"oclcSymbol":"CGU","registryId":110147,"institutionName":"University of Chicago Library","institutionType":"ACADEMIC","street1":"1100 E. 57th Street","city":"Chicago","state":"US-IL","postalCode":"60637","country":"US","latitude":41.792255,"longitude":-87.599976,"distance":6968.537876102337,"distanceUnit":"K","oclcNumber":"1086280026"},{"oclcSymbol":"NUI","registryId":57888,"institutionName":"University of Iowa Libraries","institutionType":"ACADEMIC","street1":"125 W Washington St.","city":"Iowa City","state":"US-IA","postalCode":"52242-1479","country":"US","latitude":41.659412,"longitude":-91.53811,"distance":7210.150876398513,"distanceUnit":"K","oclcNumber":"1086280026"},{"oclcSymbol":"UAB","registryId":65567,"institutionName":"University of Alberta","institutionType":"ACADEMIC","alsoCalled":"University of Alberta Library","street1":"5-02 Cameron Libr","city":"Edmonton","state":"CA-AB","postalCode":"T6G 2J8","country":"CA","latitude":53.526733,"longitude":-113.52361,"distance":7288.342749133143,"distanceUnit":"K","oclcNumber":"1086280026"},{"oclcSymbol":"CNZJL","registryId":37796,"institutionName":"Zhejiang Library","institutionType":"ACADEMIC","street1":"73 Shunguang Rd","city":"Hangzhou","postalCode":"310007","country":"CN","latitude":30.252625,"longitude":120.16508,"distance":8829.489417753091,"distanceUnit":"K","oclcNumber":"1086280026"},{"oclcSymbol":"CCHGZ","registryId":112222,"institutionName":"Hangzhou Public Library","institutionType":"PUBLIC","alsoCalled":"","street1":"No 58 Jiefangdonglu","city":"HangzhouZhejiang","postalCode":"310016","country":"CN","latitude":30.252625,"longitude":120.16508,"distance":8829.489417753091,"distanceUnit":"K","oclcNumber":"1086280026"},{"oclcSymbol":"STF","registryId":3227,"institutionName":"Stanford University Libraries","institutionType":"ACADEMIC","street1":"Green Library","street2":"Arguello Way","city":"Stanford","state":"US-CA","postalCode":"94305-6004","country":"US","latitude":37.43137,"longitude":-122.16892,"distance":9154.907042870153,"distanceUnit":"K","oclcNumber":"1086280026"},{"oclcSymbol":"CLU","registryId":207,"institutionName":"University of California, Los Angeles","institutionType":"ACADEMIC","street1":"280 Charles E. Young Dr.","city":"Los Angeles","state":"US-CA","postalCode":"90255","country":"US","latitude":34.07501,"longitude":-118.441185,"distance":9308.793889187069,"distanceUnit":"K","oclcNumber":"1086280026"},{"oclcSymbol":"COO","registryId":3913,"institutionName":"Cornell University Library","institutionType":"ACADEMIC","street1":"201 Olin Library","city":"Ithaca","state":"US-NY","postalCode":"14853-5301","country":"US","latitude":42.44667,"longitude":-76.495735,"distance":6238.384448048609,"distanceUnit":"K","oclcNumber":"1078777276"},{"oclcSymbol":"DLC","registryId":45266,"institutionName":"Library of Congress","institutionType":"REGIONAL_OR_NATIONAL","street1":"101 Independence Avenue, SE","city":"Washington","state":"US-DC","postalCode":"20540","country":"US","latitude":38.88863,"longitude":-77.00475,"distance":6528.602785373047,"distanceUnit":"K","oclcNumber":"1078777276"},{"oclcSymbol":"LNN","registryId":114986,"institutionName":"Library of Congress, Cataloging Directorate","institutionType":"REGIONAL_OR_NATIONAL","street1":"101 Independence Avenue, SE","city":"Washington","state":"US-DC","postalCode":"20540","country":"US","latitude":38.88697,"longitude":-77.00466,"distance":6528.719426450103,"distanceUnit":"K","oclcNumber":"1078777276"},{"oclcSymbol":"CGU","registryId":110147,"institutionName":"University of Chicago Library","institutionType":"ACADEMIC","street1":"1100 E. 57th Street","city":"Chicago","state":"US-IL","postalCode":"60637","country":"US","latitude":41.792255,"longitude":-87.599976,"distance":6968.537876102337,"distanceUnit":"K","oclcNumber":"1078777276"},{"oclcSymbol":"NUI","registryId":57888,"institutionName":"University of Iowa Libraries","institutionType":"ACADEMIC","street1":"125 W Washington St.","city":"Iowa City","state":"US-IA","postalCode":"52242-1479","country":"US","latitude":41.659412,"longitude":-91.53811,"distance":7210.150876398513,"distanceUnit":"K","oclcNumber":"1078777276"},{"oclcSymbol":"STF","registryId":3227,"institutionName":"Stanford University Libraries","institutionType":"ACADEMIC","street1":"Green Library","street2":"Arguello Way","city":"Stanford","state":"US-CA","postalCode":"94305-6004","country":"US","latitude":37.43137,"longitude":-122.16892,"distance":9154.907042870153,"distanceUnit":"K","oclcNumber":"1078777276"},{"oclcSymbol":"ZAS","registryId":5620,"institutionName":"University of California Los Angeles","institutionType":"ACADEMIC","alsoCalled":"Southern Regional Library Facility","street1":"Southern Regional Libr Fac","street2":"305 de Neve Drive, Box 951388","city":"Los Angeles","state":"US-CA","postalCode":"90095-1388","country":"US","latitude":34.05678,"longitude":-118.24259,"distance":9301.110233238789,"distanceUnit":"K","oclcNumber":"1078777276"},{"oclcSymbol":"CLU","registryId":207,"institutionName":"University of California, Los Angeles","institutionType":"ACADEMIC","street1":"280 Charles E. Young Dr.","city":"Los Angeles","state":"US-CA","postalCode":"90255","country":"US","latitude":34.07501,"longitude":-118.441185,"distance":9308.793889187069,"distanceUnit":"K","oclcNumber":"1078777276"},{"oclcSymbol":"CUI","registryId":5656,"institutionName":"University of California, Irvine","institutionType":"ACADEMIC","alsoCalled":"Langson Library","street1":"Univ of California Irvine","city":"Irvine","state":"US-CA","postalCode":"92697","country":"US","latitude":33.647266,"longitude":-117.841034,"distance":9320.915822937264,"distanceUnit":"K","oclcNumber":"1078777276"},{"oclcSymbol":"ZCU","registryId":4861,"institutionName":"Columbia University in the City of New York","institutionType":"ACADEMIC","alsoCalled":"Columbia University Libraries","street1":"535 West 114th Street","city":"New York","state":"US-NY","postalCode":"10027-7035","country":"US","latitude":40.806236,"longitude":-73.96326,"distance":6192.750022328971,"distanceUnit":"K","oclcNumber":"1051108323"},{"oclcSymbol":"COO","registryId":3913,"institutionName":"Cornell University Library","institutionType":"ACADEMIC","street1":"201 Olin Library","city":"Ithaca","state":"US-NY","postalCode":"14853-5301","country":"US","latitude":42.44667,"longitude":-76.495735,"distance":6238.384448048609,"distanceUnit":"K","oclcNumber":"1051108323"},{"oclcSymbol":"DLC","registryId":45266,"institutionName":"Library of Congress","institutionType":"REGIONAL_OR_NATIONAL","street1":"101 Independence Avenue, SE","city":"Washington","state":"US-DC","postalCode":"20540","country":"US","latitude":38.88863,"longitude":-77.00475,"distance":6528.602785373047,"distanceUnit":"K","oclcNumber":"1051108323"},{"oclcSymbol":"LNN","registryId":114986,"institutionName":"Library of Congress, Cataloging Directorate","institutionType":"REGIONAL_OR_NATIONAL","street1":"101 Independence Avenue, SE","city":"Washington","state":"US-DC","postalCode":"20540","country":"US","latitude":38.88697,"longitude":-77.00466,"distance":6528.719426450103,"distanceUnit":"K","oclcNumber":"1051108323"},{"oclcSymbol":"PIT","registryId":2593,"institutionName":"University of Pittsburgh","institutionType":"ACADEMIC","street1":"4200 Fifth Ave","street2":"3960 Forbes Ave","city":"Pittsburgh","state":"US-PA","postalCode":"15260","country":"US","latitude":40.44312,"longitude":-79.95592,"distance":6602.220438001183,"distanceUnit":"K","oclcNumber":"1051108323"},{"oclcSymbol":"MNU","registryId":5360,"institutionName":"University of Minnesota, Twin Cities","institutionType":"ACADEMIC","street1":"499 Wilson Libr","street2":"309 19th Ave S","city":"Minneapolis","state":"US-MN","postalCode":"55455-0414","country":"US","latitude":44.976074,"longitude":-93.23086,"distance":7042.418768240276,"distanceUnit":"K","oclcNumber":"1051108323"},{"oclcSymbol":"DLC","registryId":45266,"institutionName":"Library of Congress","institutionType":"REGIONAL_OR_NATIONAL","street1":"101 Independence Avenue, SE","city":"Washington","state":"US-DC","postalCode":"20540","country":"US","latitude":38.88863,"longitude":-77.00475,"distance":6528.602785373047,"distanceUnit":"K","oclcNumber":"1046967642"},{"oclcSymbol":"LNN","registryId":114986,"institutionName":"Library of Congress, Cataloging Directorate","institutionType":"REGIONAL_OR_NATIONAL","street1":"101 Independence Avenue, SE","city":"Washington","state":"US-DC","postalCode":"20540","country":"US","latitude":38.88697,"longitude":-77.00466,"distance":6528.719426450103,"distanceUnit":"K","oclcNumber":"1046967642"},{"oclcSymbol":"CGU","registryId":110147,"institutionName":"University of Chicago Library","institutionType":"ACADEMIC","street1":"1100 E. 57th Street","city":"Chicago","state":"US-IL","postalCode":"60637","country":"US","latitude":41.792255,"longitude":-87.599976,"distance":6968.537876102337,"distanceUnit":"K","oclcNumber":"1046967642"},{"oclcSymbol":"CUY","registryId":5689,"institutionName":"UC Berkeley Libraries","institutionType":"ACADEMIC","street1":"133 Doe Library","street2":"University of California","city":"Berkeley","state":"US-CA","postalCode":"94720-6000","country":"US","latitude":37.87575,"longitude":-122.24341,"distance":9115.023971148703,"distanceUnit":"K","oclcNumber":"1046967642"},{"oclcSymbol":"YUS","registryId":544,"institutionName":"Yale University Library","institutionType":"ACADEMIC","street1":"Sterling Mem Libr 130 Wall St","street2":"PO Box 208240","city":"New Haven","state":"US-CT","postalCode":"06520-8240","country":"US","latitude":41.309837,"longitude":-72.92811,"distance":6090.136001032786,"distanceUnit":"K","oclcNumber":"1044882552"},{"oclcSymbol":"DLC","registryId":45266,"institutionName":"Library of Congress","institutionType":"REGIONAL_OR_NATIONAL","street1":"101 Independence Avenue, SE","city":"Washington","state":"US-DC","postalCode":"20540","country":"US","latitude":38.88863,"longitude":-77.00475,"distance":6528.602785373047,"distanceUnit":"K","oclcNumber":"1044882552"},{"oclcSymbol":"LNN","registryId":114986,"institutionName":"Library of Congress, Cataloging Directorate","institutionType":"REGIONAL_OR_NATIONAL","street1":"101 Independence Avenue, SE","city":"Washington","state":"US-DC","postalCode":"20540","country":"US","latitude":38.88697,"longitude":-77.00466,"distance":6528.719426450103,"distanceUnit":"K","oclcNumber":"1044882552"},{"oclcSymbol":"STF","registryId":3227,"institutionName":"Stanford University Libraries","institutionType":"ACADEMIC","street1":"Green Library","street2":"Arguello Way","city":"Stanford","state":"US-CA","postalCode":"94305-6004","country":"US","latitude":37.43137,"longitude":-122.16892,"distance":9154.907042870153,"distanceUnit":"K","oclcNumber":"1044882552"},{"oclcSymbol":"CLU","registryId":207,"institutionName":"University of California, Los Angeles","institutionType":"ACADEMIC","street1":"280 Charles E. Young Dr.","city":"Los Angeles","state":"US-CA","postalCode":"90255","country":"US","latitude":34.07501,"longitude":-118.441185,"distance":9308.793889187069,"distanceUnit":"K","oclcNumber":"1044882552"},{"oclcSymbol":"ZCU","registryId":4861,"institutionName":"Columbia University in the City of New York","institutionType":"ACADEMIC","alsoCalled":"Columbia University Libraries","street1":"535 West 114th Street","city":"New York","state":"US-NY","postalCode":"10027-7035","country":"US","latitude":40.806236,"longitude":-73.96326,"distance":6192.750022328971,"distanceUnit":"K","oclcNumber":"1090687332"},{"oclcSymbol":"CNEAL","registryId":104498,"institutionName":"University of Toronto East Asian Library","institutionType":"ACADEMIC","street1":"130 St George St 8th Fl","city":"Toronto","state":"CA-ON","postalCode":"M5S 1A5","country":"CA","latitude":43.665096,"longitude":-79.399315,"distance":6332.484953290851,"distanceUnit":"K","oclcNumber":"1090687332"},{"oclcSymbol":"CGU","registryId":110147,"institutionName":"University of Chicago Library","institutionType":"ACADEMIC","street1":"1100 E. 57th Street","city":"Chicago","state":"US-IL","postalCode":"60637","country":"US","latitude":41.792255,"longitude":-87.599976,"distance":6968.537876102337,"distanceUnit":"K","oclcNumber":"1090687332"},{"oclcSymbol":"CRU","registryId":208,"institutionName":"University of California, Riverside","institutionType":"ACADEMIC","alsoCalled":"UCR","street1":"Ill - Rivera Library / University of California","street2":"3401 Watkins Drive","city":"Riverside","state":"US-CA","postalCode":"92521-0409","country":"US","latitude":33.972725,"longitude":-117.32714,"distance":9265.311926603366,"distanceUnit":"K","oclcNumber":"1090687332"},{"oclcSymbol":"ZCU","registryId":4861,"institutionName":"Columbia University in the City of New York","institutionType":"ACADEMIC","alsoCalled":"Columbia University Libraries","street1":"535 West 114th Street","city":"New York","state":"US-NY","postalCode":"10027-7035","country":"US","latitude":40.806236,"longitude":-73.96326,"distance":6192.750022328971,"distanceUnit":"K","oclcNumber":"1024099318"},{"oclcSymbol":"OSU","registryId":2315,"institutionName":"Ohio State University Libraries","institutionType":"ACADEMIC","street1":"1858 Neil Avenue","city":"Columbus","state":"US-OH","postalCode":"43210","country":"US","latitude":39.99908,"longitude":-83.01568,"distance":6827.137620801146,"distanceUnit":"K","oclcNumber":"1024099318"},{"oclcSymbol":"CNZJL","registryId":37796,"institutionName":"Zhejiang Library","institutionType":"ACADEMIC","street1":"73 Shunguang Rd","city":"Hangzhou","postalCode":"310007","country":"CN","latitude":30.252625,"longitude":120.16508,"distance":8829.489417753091,"distanceUnit":"K","oclcNumber":"1024099318"},{"oclcSymbol":"EYM","registryId":5293,"institutionName":"University of Michigan","institutionType":"ACADEMIC","alsoCalled":"University of Michigan - Ann Arbor","street1":"818 Hatcher Graduate Library","street2":"913 S. University Avenue","city":"Ann Arbor","state":"US-MI","postalCode":"48109-1190","country":"US","latitude":42.2763,"longitude":-83.7382,"distance":6699.5468970135225,"distanceUnit":"K","oclcNumber":"1087316592"},{"oclcSymbol":"ZCU","registryId":4861,"institutionName":"Columbia University in the City of New York","institutionType":"ACADEMIC","alsoCalled":"Columbia University Libraries","street1":"535 West 114th Street","city":"New York","state":"US-NY","postalCode":"10027-7035","country":"US","latitude":40.806236,"longitude":-73.96326,"distance":6192.750022328971,"distanceUnit":"K","oclcNumber":"1090687122"},{"oclcSymbol":"CNEAL","registryId":104498,"institutionName":"University of Toronto East Asian Library","institutionType":"ACADEMIC","street1":"130 St George St 8th Fl","city":"Toronto","state":"CA-ON","postalCode":"M5S 1A5","country":"CA","latitude":43.665096,"longitude":-79.399315,"distance":6332.484953290851,"distanceUnit":"K","oclcNumber":"1090687122"},{"oclcSymbol":"CGU","registryId":110147,"institutionName":"University of Chicago Library","institutionType":"ACADEMIC","street1":"1100 E. 57th Street","city":"Chicago","state":"US-IL","postalCode":"60637","country":"US","latitude":41.792255,"longitude":-87.599976,"distance":6968.537876102337,"distanceUnit":"K","oclcNumber":"1090687122"},{"oclcSymbol":"CRU","registryId":208,"institutionName":"University of California, Riverside","institutionType":"ACADEMIC","alsoCalled":"UCR","street1":"Ill - Rivera Library / University of California","street2":"3401 Watkins Drive","city":"Riverside","state":"US-CA","postalCode":"92521-0409","country":"US","latitude":33.972725,"longitude":-117.32714,"distance":9265.311926603366,"distanceUnit":"K","oclcNumber":"1090687122"},{"oclcSymbol":"LXY","registryId":9138,"institutionName":"Iowa City Public Library","institutionType":"PUBLIC","street1":"123 S Linn St","city":"Iowa City","state":"US-IA","postalCode":"52240 1820","country":"US","latitude":41.6592,"longitude":-91.53195,"distance":7209.811033967039,"distanceUnit":"K","oclcNumber":"1112271480"},{"oclcSymbol":"PLS","registryId":15704,"institutionName":"Plano Public Library","institutionType":"PUBLIC","street1":"2501 Coit Rd","city":"Plano","state":"US-TX","postalCode":"75075","country":"US","latitude":33.01575,"longitude":-96.73747,"distance":8231.29586612216,"distanceUnit":"K","oclcNumber":"1112271480"},{"oclcSymbol":"CNZJL","registryId":37796,"institutionName":"Zhejiang Library","institutionType":"ACADEMIC","street1":"73 Shunguang Rd","city":"Hangzhou","postalCode":"310007","country":"CN","latitude":30.252625,"longitude":120.16508,"distance":8829.489417753091,"distanceUnit":"K","oclcNumber":"1112271480"},{"oclcSymbol":"DLC","registryId":45266,"institutionName":"Library of Congress","institutionType":"REGIONAL_OR_NATIONAL","street1":"101 Independence Avenue, SE","city":"Washington","state":"US-DC","postalCode":"20540","country":"US","latitude":38.88863,"longitude":-77.00475,"distance":6528.602785373047,"distanceUnit":"K","oclcNumber":"1083713635"},{"oclcSymbol":"LNN","registryId":114986,"institutionName":"Library of Congress, Cataloging Directorate","institutionType":"REGIONAL_OR_NATIONAL","street1":"101 Independence Avenue, SE","city":"Washington","state":"US-DC","postalCode":"20540","country":"US","latitude":38.88697,"longitude":-77.00466,"distance":6528.719426450103,"distanceUnit":"K","oclcNumber":"1083713635"},{"oclcSymbol":"EYM","registryId":5293,"institutionName":"University of Michigan","institutionType":"ACADEMIC","alsoCalled":"University of Michigan - Ann Arbor","street1":"818 Hatcher Graduate Library","street2":"913 S. University Avenue","city":"Ann Arbor","state":"US-MI","postalCode":"48109-1190","country":"US","latitude":42.2763,"longitude":-83.7382,"distance":6699.5468970135225,"distanceUnit":"K","oclcNumber":"1083713635"},{"oclcSymbol":"MNU","registryId":5360,"institutionName":"University of Minnesota, Twin Cities","institutionType":"ACADEMIC","street1":"499 Wilson Libr","street2":"309 19th Ave S","city":"Minneapolis","state":"US-MN","postalCode":"55455-0414","country":"US","latitude":44.976074,"longitude":-93.23086,"distance":7042.418768240276,"distanceUnit":"K","oclcNumber":"1083713635"},{"oclcSymbol":"MLN","registryId":86798,"institutionName":"Minuteman Library Network","institutionType":"LIBRARY_NETWORK_GROUP","street1":"10 Strathmore Rd","city":"Natick","state":"US-MA","postalCode":"01760","country":"US","latitude":42.28951,"longitude":-71.35502,"distance":5920.2835824333615,"distanceUnit":"K","oclcNumber":"1097627645"},{"oclcSymbol":"CLE","registryId":14223,"institutionName":"Cleveland Public Library","institutionType":"PUBLIC","alsoCalled":"Main Library","street1":"325 Superior Avenue","city":"Cleveland","state":"US-OH","postalCode":"44114-1271","country":"US","latitude":41.501495,"longitude":-81.690865,"distance":6631.954934408229,"distanceUnit":"K","oclcNumber":"1097627645"},{"oclcSymbol":"CGP","registryId":9812,"institutionName":"Chicago Public Library","institutionType":"PUBLIC","alsoCalled":"Harold Washington Library Center","street1":"400 South State Street","city":"Chicago","state":"US-IL","postalCode":"60605","country":"US","latitude":41.87632,"longitude":-87.628204,"distance":6963.705310333888,"distanceUnit":"K","oclcNumber":"1097627645"},{"oclcSymbol":"GO9","registryId":10182,"institutionName":"Schaumburg Township District Library","institutionType":"PUBLIC","street1":"130 South Roselle Road","city":"Schaumburg","state":"US-IL","postalCode":"60193-1647","country":"US","latitude":42.02542,"longitude":-88.0833,"distance":6979.125711978026,"distanceUnit":"K","oclcNumber":"1097627645"},{"oclcSymbol":"SVP","registryId":12255,"institutionName":"Saint Louis Public Library","institutionType":"LIBRARY_NETWORK_GROUP","alsoCalled":"St Louis Public Library","street1":"1301 Olive St","city":"St Louis","state":"US-MO","postalCode":"63103","country":"US","latitude":38.63061,"longitude":-90.199486,"distance":7373.47720003159,"distanceUnit":"K","oclcNumber":"1097627645"},{"oclcSymbol":"UOK","registryId":16409,"institutionName":"Seattle Public Library","institutionType":"PUBLIC","alsoCalled":"Central Library","street1":"1000 Fourth Avenue","city":"Seattle","state":"US-WA","postalCode":"98104","country":"US","latitude":47.606644,"longitude":-122.332535,"distance":8179.057816420519,"distanceUnit":"K","oclcNumber":"1097627645"},{"oclcSymbol":"CNZJL","registryId":37796,"institutionName":"Zhejiang Library","institutionType":"ACADEMIC","street1":"73 Shunguang Rd","city":"Hangzhou","postalCode":"310007","country":"CN","latitude":30.252625,"longitude":120.16508,"distance":8829.489417753091,"distanceUnit":"K","oclcNumber":"1097627645"},{"oclcSymbol":"SFR","registryId":8579,"institutionName":"San Francisco Public Library","institutionType":"PUBLIC","alsoCalled":"SFPL Main Library","street1":"100 Larkin Street","city":"San Francisco","state":"US-CA","postalCode":"94102","country":"US","latitude":37.778866,"longitude":-122.41578,"distance":9131.818788722108,"distanceUnit":"K","oclcNumber":"1097627645"},{"oclcSymbol":"SINLB","registryId":63464,"institutionName":"National Library Board, Singapore","institutionType":"REGIONAL_OR_NATIONAL","street1":"National Library Board,","street2":"100 Victoria Street, #14-01, National Library Building","city":"Singapore","postalCode":"188064","country":"SG","latitude":1.297366,"longitude":103.85384,"distance":10264.410371761638,"distanceUnit":"K","oclcNumber":"1097627645"},{"oclcSymbol":"CNZJL","registryId":37796,"institutionName":"Zhejiang Library","institutionType":"ACADEMIC","street1":"73 Shunguang Rd","city":"Hangzhou","postalCode":"310007","country":"CN","latitude":30.252625,"longitude":120.16508,"distance":8829.489417753091,"distanceUnit":"K","oclcNumber":"1097901491"},{"oclcSymbol":"CNZJL","registryId":37796,"institutionName":"Zhejiang Library","institutionType":"ACADEMIC","street1":"73 Shunguang Rd","city":"Hangzhou","postalCode":"310007","country":"CN","latitude":30.252625,"longitude":120.16508,"distance":8829.489417753091,"distanceUnit":"K","oclcNumber":"1191806119"},{"oclcSymbol":"CCHGZ","registryId":112222,"institutionName":"Hangzhou Public Library","institutionType":"PUBLIC","alsoCalled":"","street1":"No 58 Jiefangdonglu","city":"HangzhouZhejiang","postalCode":"310016","country":"CN","latitude":30.252625,"longitude":120.16508,"distance":8829.489417753091,"distanceUnit":"K","oclcNumber":"1191806119"},{"oclcSymbol":"CNZJL","registryId":37796,"institutionName":"Zhejiang Library","institutionType":"ACADEMIC","street1":"73 Shunguang Rd","city":"Hangzhou","postalCode":"310007","country":"CN","latitude":30.252625,"longitude":120.16508,"distance":8829.489417753091,"distanceUnit":"K","oclcNumber":"1112278890"},{"oclcSymbol":"CCHGZ","registryId":112222,"institutionName":"Hangzhou Public Library","institutionType":"PUBLIC","alsoCalled":"","street1":"No 58 Jiefangdonglu","city":"HangzhouZhejiang","postalCode":"310016","country":"CN","latitude":30.252625,"longitude":120.16508,"distance":8829.489417753091,"distanceUnit":"K","oclcNumber":"1112278890"},{"oclcSymbol":"HUL","registryId":73876,"institutionName":"Harvard University","institutionType":"ACADEMIC","alsoCalled":"Harvard Library","street1":"Harvard University","city":"Cambridge","state":"US-MA","postalCode":"02138","country":"US","latitude":42.379486,"longitude":-71.11653,"distance":5898.670972048441,"distanceUnit":"K","oclcNumber":"1083748774"},{"oclcSymbol":"DLC","registryId":45266,"institutionName":"Library of Congress","institutionType":"REGIONAL_OR_NATIONAL","street1":"101 Independence Avenue, SE","city":"Washington","state":"US-DC","postalCode":"20540","country":"US","latitude":38.88863,"longitude":-77.00475,"distance":6528.602785373047,"distanceUnit":"K","oclcNumber":"1083748774"},{"oclcSymbol":"LNN","registryId":114986,"institutionName":"Library of Congress, Cataloging Directorate","institutionType":"REGIONAL_OR_NATIONAL","street1":"101 Independence Avenue, SE","city":"Washington","state":"US-DC","postalCode":"20540","country":"US","latitude":38.88697,"longitude":-77.00466,"distance":6528.719426450103,"distanceUnit":"K","oclcNumber":"1083748774"},{"oclcSymbol":"CNZJL","registryId":37796,"institutionName":"Zhejiang Library","institutionType":"ACADEMIC","street1":"73 Shunguang Rd","city":"Hangzhou","postalCode":"310007","country":"CN","latitude":30.252625,"longitude":120.16508,"distance":8829.489417753091,"distanceUnit":"K","oclcNumber":"1178837873"},{"oclcSymbol":"CCHGZ","registryId":112222,"institutionName":"Hangzhou Public Library","institutionType":"PUBLIC","alsoCalled":"","street1":"No 58 Jiefangdonglu","city":"HangzhouZhejiang","postalCode":"310016","country":"CN","latitude":30.252625,"longitude":120.16508,"distance":8829.489417753091,"distanceUnit":"K","oclcNumber":"1178837873"},{"oclcSymbol":"CNZJL","registryId":37796,"institutionName":"Zhejiang Library","institutionType":"ACADEMIC","street1":"73 Shunguang Rd","city":"Hangzhou","postalCode":"310007","country":"CN","latitude":30.252625,"longitude":120.16508,"distance":8829.489417753091,"distanceUnit":"K","oclcNumber":"1097977208"},{"oclcSymbol":"EMU","registryId":699,"institutionName":"Emory University","institutionType":"ACADEMIC","alsoCalled":"Robert W. Woodruff Library (Woodruff Main Library)","street1":"Robert W. Woodruff Library","street2":"540 Asbury Circle, NE","city":"Atlanta","state":"US-GA","postalCode":"30322","country":"US","latitude":33.79044,"longitude":-84.32282,"distance":7393.571775966326,"distanceUnit":"K","oclcNumber":"1028894792"},{"oclcSymbol":"STF","registryId":3227,"institutionName":"Stanford University Libraries","institutionType":"ACADEMIC","street1":"Green Library","street2":"Arguello Way","city":"Stanford","state":"US-CA","postalCode":"94305-6004","country":"US","latitude":37.43137,"longitude":-122.16892,"distance":9154.907042870153,"distanceUnit":"K","oclcNumber":"1028894792"},{"oclcSymbol":"CNZJL","registryId":37796,"institutionName":"Zhejiang Library","institutionType":"ACADEMIC","street1":"73 Shunguang Rd","city":"Hangzhou","postalCode":"310007","country":"CN","latitude":30.252625,"longitude":120.16508,"distance":8829.489417753091,"distanceUnit":"K","oclcNumber":"1178863596"},{"oclcSymbol":"CCHGZ","registryId":112222,"institutionName":"Hangzhou Public Library","institutionType":"PUBLIC","alsoCalled":"","street1":"No 58 Jiefangdonglu","city":"HangzhouZhejiang","postalCode":"310016","country":"CN","latitude":30.252625,"longitude":120.16508,"distance":8829.489417753091,"distanceUnit":"K","oclcNumber":"1178863596"},{"oclcSymbol":"CCHGZ","registryId":112222,"institutionName":"Hangzhou Public Library","institutionType":"PUBLIC","alsoCalled":"","street1":"No 58 Jiefangdonglu","city":"HangzhouZhejiang","postalCode":"310016","country":"CN","latitude":30.252625,"longitude":120.16508,"distance":8829.489417753091,"distanceUnit":"K","oclcNumber":"1129668241"},{"oclcSymbol":"HUL","registryId":73876,"institutionName":"Harvard University","institutionType":"ACADEMIC","alsoCalled":"Harvard Library","street1":"Harvard University","city":"Cambridge","state":"US-MA","postalCode":"02138","country":"US","latitude":42.379486,"longitude":-71.11653,"distance":5898.670972048441,"distanceUnit":"K","oclcNumber":"1038451178"},{"oclcSymbol":"DLC","registryId":45266,"institutionName":"Library of Congress","institutionType":"REGIONAL_OR_NATIONAL","street1":"101 Independence Avenue, SE","city":"Washington","state":"US-DC","postalCode":"20540","country":"US","latitude":38.88863,"longitude":-77.00475,"distance":6528.602785373047,"distanceUnit":"K","oclcNumber":"1038451178"},{"oclcSymbol":"ORX","registryId":14584,"institutionName":"Multnomah County Library","institutionType":"PUBLIC","street1":"221 NE 122nd Avenue","city":"Portland","state":"US-OR","postalCode":"97230","country":"US","latitude":45.52448,"longitude":-122.53854,"distance":8387.27402337125,"distanceUnit":"K","oclcNumber":"1055792912"},{"oclcSymbol":"HUL","registryId":73876,"institutionName":"Harvard University","institutionType":"ACADEMIC","alsoCalled":"Harvard Library","street1":"Harvard University","city":"Cambridge","state":"US-MA","postalCode":"02138","country":"US","latitude":42.379486,"longitude":-71.11653,"distance":5898.670972048441,"distanceUnit":"K","oclcNumber":"1035149590"},{"oclcSymbol":"CCHGZ","registryId":112222,"institutionName":"Hangzhou Public Library","institutionType":"PUBLIC","alsoCalled":"","street1":"No 58 Jiefangdonglu","city":"HangzhouZhejiang","postalCode":"310016","country":"CN","latitude":30.252625,"longitude":120.16508,"distance":8829.489417753091,"distanceUnit":"K","oclcNumber":"1129702339"},{"oclcSymbol":"CNZJL","registryId":37796,"institutionName":"Zhejiang Library","institutionType":"ACADEMIC","street1":"73 Shunguang Rd","city":"Hangzhou","postalCode":"310007","country":"CN","latitude":30.252625,"longitude":120.16508,"distance":8829.489417753091,"distanceUnit":"K","oclcNumber":"1178865606"},{"oclcSymbol":"CNZJL","registryId":37796,"institutionName":"Zhejiang Library","institutionType":"ACADEMIC","street1":"73 Shunguang Rd","city":"Hangzhou","postalCode":"310007","country":"CN","latitude":30.252625,"longitude":120.16508,"distance":8829.489417753091,"distanceUnit":"K","oclcNumber":"1178840037"},{"oclcSymbol":"CNZJL","registryId":37796,"institutionName":"Zhejiang Library","institutionType":"ACADEMIC","street1":"73 Shunguang Rd","city":"Hangzhou","postalCode":"310007","country":"CN","latitude":30.252625,"longitude":120.16508,"distance":8829.489417753091,"distanceUnit":"K","oclcNumber":"1129660317"},{"oclcSymbol":"CNZJL","registryId":37796,"institutionName":"Zhejiang Library","institutionType":"ACADEMIC","street1":"73 Shunguang Rd","city":"Hangzhou","postalCode":"310007","country":"CN","latitude":30.252625,"longitude":120.16508,"distance":8829.489417753091,"distanceUnit":"K","oclcNumber":"1178820345"},{"oclcSymbol":"CNZJL","registryId":37796,"institutionName":"Zhejiang Library","institutionType":"ACADEMIC","street1":"73 Shunguang Rd","city":"Hangzhou","postalCode":"310007","country":"CN","latitude":30.252625,"longitude":120.16508,"distance":8829.489417753091,"distanceUnit":"K","oclcNumber":"1164825806"},{"oclcSymbol":"U@L","registryId":65553,"institutionName":"University of Macau","institutionType":"ACADEMIC","street1":"Wu Yee Sun Library, University of Macau, E2","street2":"Avenida da Universidade, Taipa","city":"Macau","country":"CN","latitude":22.129786,"longitude":113.54599,"distance":9133.250593588788,"distanceUnit":"K","oclcNumber":"1149731128"},{"oclcSymbol":"L2U","registryId":53238,"institutionName":"Leiden University Libraries","institutionType":"ACADEMIC","alsoCalled":"Universitaire Bibliotheken Leiden","street1":"Witte Singel 27","city":"Leiden","postalCode":"2311 BG","country":"NL","latitude":52.157307,"longitude":4.481427,"distance":370.5077498902995,"distanceUnit":"K","oclcNumber":"1080515956"},{"oclcSymbol":"HUL","registryId":73876,"institutionName":"Harvard University","institutionType":"ACADEMIC","alsoCalled":"Harvard Library","street1":"Harvard University","city":"Cambridge","state":"US-MA","postalCode":"02138","country":"US","latitude":42.379486,"longitude":-71.11653,"distance":5898.670972048441,"distanceUnit":"K","oclcNumber":"1080515956"},{"oclcSymbol":"ZCU","registryId":4861,"institutionName":"Columbia University in the City of New York","institutionType":"ACADEMIC","alsoCalled":"Columbia University Libraries","street1":"535 West 114th Street","city":"New York","state":"US-NY","postalCode":"10027-7035","country":"US","latitude":40.806236,"longitude":-73.96326,"distance":6192.750022328971,"distanceUnit":"K","oclcNumber":"1080515956"},{"oclcSymbol":"COO","registryId":3913,"institutionName":"Cornell University Library","institutionType":"ACADEMIC","street1":"201 Olin Library","city":"Ithaca","state":"US-NY","postalCode":"14853-5301","country":"US","latitude":42.44667,"longitude":-76.495735,"distance":6238.384448048609,"distanceUnit":"K","oclcNumber":"1080515956"},{"oclcSymbol":"UPM","registryId":2571,"institutionName":"Pennsylvania State University Libraries","institutionType":"ACADEMIC","street1":"127 Paterno Library","city":"University Park","state":"US-PA","postalCode":"16802-1808","country":"US","latitude":40.79788,"longitude":-77.86602,"distance":6443.843440550913,"distanceUnit":"K","oclcNumber":"1080515956"},{"oclcSymbol":"DLC","registryId":45266,"institutionName":"Library of Congress","institutionType":"REGIONAL_OR_NATIONAL","street1":"101 Independence Avenue, SE","city":"Washington","state":"US-DC","postalCode":"20540","country":"US","latitude":38.88863,"longitude":-77.00475,"distance":6528.602785373047,"distanceUnit":"K","oclcNumber":"1080515956"},{"oclcSymbol":"LNN","registryId":114986,"institutionName":"Library of Congress, Cataloging Directorate","institutionType":"REGIONAL_OR_NATIONAL","street1":"101 Independence Avenue, SE","city":"Washington","state":"US-DC","postalCode":"20540","country":"US","latitude":38.88697,"longitude":-77.00466,"distance":6528.719426450103,"distanceUnit":"K","oclcNumber":"1080515956"},{"oclcSymbol":"OBE","registryId":2304,"institutionName":"Oberlin College Libraries","institutionType":"ACADEMIC","street1":"148 West College Street","city":"Oberlin","state":"US-OH","postalCode":"44074-1532","country":"US","latitude":41.292927,"longitude":-82.2228,"distance":6680.410813469558,"distanceUnit":"K","oclcNumber":"1080515956"},{"oclcSymbol":"EYM","registryId":5293,"institutionName":"University of Michigan","institutionType":"ACADEMIC","alsoCalled":"University of Michigan - Ann Arbor","street1":"818 Hatcher Graduate Library","street2":"913 S. University Avenue","city":"Ann Arbor","state":"US-MI","postalCode":"48109-1190","country":"US","latitude":42.2763,"longitude":-83.7382,"distance":6699.5468970135225,"distanceUnit":"K","oclcNumber":"1080515956"},{"oclcSymbol":"CGU","registryId":110147,"institutionName":"University of Chicago Library","institutionType":"ACADEMIC","street1":"1100 E. 57th Street","city":"Chicago","state":"US-IL","postalCode":"60637","country":"US","latitude":41.792255,"longitude":-87.599976,"distance":6968.537876102337,"distanceUnit":"K","oclcNumber":"1080515956"},{"oclcSymbol":"UIU","registryId":5415,"institutionName":"University of Illinois at Urbana Champaign","institutionType":"ACADEMIC","street1":"1408 W Gregory Dr","street2":"128 Main Libr Mc 522","city":"Urbana","state":"US-IL","postalCode":"61801-3692","country":"US","latitude":40.10469,"longitude":-88.227066,"distance":7137.761295036732,"distanceUnit":"K","oclcNumber":"1080515956"},{"oclcSymbol":"CNZJL","registryId":37796,"institutionName":"Zhejiang Library","institutionType":"ACADEMIC","street1":"73 Shunguang Rd","city":"Hangzhou","postalCode":"310007","country":"CN","latitude":30.252625,"longitude":120.16508,"distance":8829.489417753091,"distanceUnit":"K","oclcNumber":"1080515956"},{"oclcSymbol":"CUY","registryId":5689,"institutionName":"UC Berkeley Libraries","institutionType":"ACADEMIC","street1":"133 Doe Library","street2":"University of California","city":"Berkeley","state":"US-CA","postalCode":"94720-6000","country":"US","latitude":37.87575,"longitude":-122.24341,"distance":9115.023971148703,"distanceUnit":"K","oclcNumber":"1080515956"},{"oclcSymbol":"STF","registryId":3227,"institutionName":"Stanford University Libraries","institutionType":"ACADEMIC","street1":"Green Library","street2":"Arguello Way","city":"Stanford","state":"US-CA","postalCode":"94305-6004","country":"US","latitude":37.43137,"longitude":-122.16892,"distance":9154.907042870153,"distanceUnit":"K","oclcNumber":"1080515956"},{"oclcSymbol":"ZAS","registryId":5620,"institutionName":"University of California Los Angeles","institutionType":"ACADEMIC","alsoCalled":"Southern Regional Library Facility","street1":"Southern Regional Libr Fac","street2":"305 de Neve Drive, Box 951388","city":"Los Angeles","state":"US-CA","postalCode":"90095-1388","country":"US","latitude":34.05678,"longitude":-118.24259,"distance":9301.110233238789,"distanceUnit":"K","oclcNumber":"1080515956"},{"oclcSymbol":"CLU","registryId":207,"institutionName":"University of California, Los Angeles","institutionType":"ACADEMIC","street1":"280 Charles E. Young Dr.","city":"Los Angeles","state":"US-CA","postalCode":"90255","country":"US","latitude":34.07501,"longitude":-118.441185,"distance":9308.793889187069,"distanceUnit":"K","oclcNumber":"1080515956"},{"oclcSymbol":"HUL","registryId":73876,"institutionName":"Harvard University","institutionType":"ACADEMIC","alsoCalled":"Harvard Library","street1":"Harvard University","city":"Cambridge","state":"US-MA","postalCode":"02138","country":"US","latitude":42.379486,"longitude":-71.11653,"distance":5898.670972048441,"distanceUnit":"K","oclcNumber":"1050286859"},{"oclcSymbol":"ZCU","registryId":4861,"institutionName":"Columbia University in the City of New York","institutionType":"ACADEMIC","alsoCalled":"Columbia University Libraries","street1":"535 West 114th Street","city":"New York","state":"US-NY","postalCode":"10027-7035","country":"US","latitude":40.806236,"longitude":-73.96326,"distance":6192.750022328971,"distanceUnit":"K","oclcNumber":"1050286859"},{"oclcSymbol":"BNG","registryId":2031,"institutionName":"State University of New York, Binghamton University Libraries","institutionType":"ACADEMIC","alsoCalled":"Glenn G. Bartle Library","street1":"Vestal Pky E","street2":"PO Box 6012","city":"Binghamton","state":"US-NY","postalCode":"13902-6012","country":"US","latitude":42.08883,"longitude":-75.96697,"distance":6230.293280084618,"distanceUnit":"K","oclcNumber":"1050286859"},{"oclcSymbol":"PUL","registryId":1791,"institutionName":"Princeton University Library","institutionType":"ACADEMIC","alsoCalled":"Firestone Library","street1":"1 Washington Rd","city":"Princeton","state":"US-NJ","postalCode":"08544-2098","country":"US","latitude":40.349854,"longitude":-74.65912,"distance":6270.382818212047,"distanceUnit":"K","oclcNumber":"1050286859"},{"oclcSymbol":"DLC","registryId":45266,"institutionName":"Library of Congress","institutionType":"REGIONAL_OR_NATIONAL","street1":"101 Independence Avenue, SE","city":"Washington","state":"US-DC","postalCode":"20540","country":"US","latitude":38.88863,"longitude":-77.00475,"distance":6528.602785373047,"distanceUnit":"K","oclcNumber":"1050286859"},{"oclcSymbol":"LNN","registryId":114986,"institutionName":"Library of Congress, Cataloging Directorate","institutionType":"REGIONAL_OR_NATIONAL","street1":"101 Independence Avenue, SE","city":"Washington","state":"US-DC","postalCode":"20540","country":"US","latitude":38.88697,"longitude":-77.00466,"distance":6528.719426450103,"distanceUnit":"K","oclcNumber":"1050286859"},{"oclcSymbol":"NDD","registryId":2106,"institutionName":"Duke University Libraries","institutionType":"ACADEMIC","alsoCalled":"Duke University Library; Perkins Library","street1":"411 Chapel Drive","street2":"PO Box 90188","city":"Durham","state":"US-NC","postalCode":"27708","country":"US","latitude":36.00183,"longitude":-78.93905,"distance":6871.28474713783,"distanceUnit":"K","oclcNumber":"1050286859"},{"oclcSymbol":"CGU","registryId":110147,"institutionName":"University of Chicago Library","institutionType":"ACADEMIC","street1":"1100 E. 57th Street","city":"Chicago","state":"US-IL","postalCode":"60637","country":"US","latitude":41.792255,"longitude":-87.599976,"distance":6968.537876102337,"distanceUnit":"K","oclcNumber":"1050286859"},{"oclcSymbol":"IUL","registryId":5279,"institutionName":"Indiana University","institutionType":"ACADEMIC","street1":"1320 East 10th Street","city":"Bloomington","state":"US-IN","postalCode":"47405-3907","country":"US","latitude":39.17216,"longitude":-86.52552,"distance":7107.579529722649,"distanceUnit":"K","oclcNumber":"1050286859"},{"oclcSymbol":"NUI","registryId":57888,"institutionName":"University of Iowa Libraries","institutionType":"ACADEMIC","street1":"125 W Washington St.","city":"Iowa City","state":"US-IA","postalCode":"52242-1479","country":"US","latitude":41.659412,"longitude":-91.53811,"distance":7210.150876398513,"distanceUnit":"K","oclcNumber":"1050286859"},{"oclcSymbol":"AZS","registryId":40437,"institutionName":"Arizona State University Library","institutionType":"ACADEMIC","street1":"ASU Libraries","street2":"PO Box 871006","city":"Tempe","state":"US-AZ","postalCode":"85287-1006","country":"US","latitude":33.42113,"longitude":-111.92893,"distance":9046.99734545789,"distanceUnit":"K","oclcNumber":"1050286859"},{"oclcSymbol":"CLU","registryId":207,"institutionName":"University of California, Los Angeles","institutionType":"ACADEMIC","street1":"280 Charles E. Young Dr.","city":"Los Angeles","state":"US-CA","postalCode":"90255","country":"US","latitude":34.07501,"longitude":-118.441185,"distance":9308.793889187069,"distanceUnit":"K","oclcNumber":"1050286859"},{"oclcSymbol":"HUH","registryId":760,"institutionName":"University of Hawaii at Manoa","institutionType":"ACADEMIC","alsoCalled":"Hamilton Library","street1":"Hamilton Library","street2":"2550 McCarthy Mall","city":"Honolulu","state":"US-HI","postalCode":"96822","country":"US","latitude":21.300537,"longitude":-157.81621,"distance":11962.425698979041,"distanceUnit":"K","oclcNumber":"1050286859"},{"oclcSymbol":"HUL","registryId":73876,"institutionName":"Harvard University","institutionType":"ACADEMIC","alsoCalled":"Harvard Library","street1":"Harvard University","city":"Cambridge","state":"US-MA","postalCode":"02138","country":"US","latitude":42.379486,"longitude":-71.11653,"distance":5898.670972048441,"distanceUnit":"K","oclcNumber":"1111288319"},{"oclcSymbol":"PUL","registryId":1791,"institutionName":"Princeton University Library","institutionType":"ACADEMIC","alsoCalled":"Firestone Library","street1":"1 Washington Rd","city":"Princeton","state":"US-NJ","postalCode":"08544-2098","country":"US","latitude":40.349854,"longitude":-74.65912,"distance":6270.382818212047,"distanceUnit":"K","oclcNumber":"1111288319"},{"oclcSymbol":"PAU","registryId":2583,"institutionName":"University of Pennsylvania Libraries","institutionType":"ACADEMIC","alsoCalled":"Penn Libraries","street1":"Library","street2":"3420 Walnut St","city":"Philadelphia","state":"US-PA","postalCode":"19104-6206","country":"US","latitude":39.952724,"longitude":-75.194,"distance":6333.612472191301,"distanceUnit":"K","oclcNumber":"1111288319"},{"oclcSymbol":"DLC","registryId":45266,"institutionName":"Library of Congress","institutionType":"REGIONAL_OR_NATIONAL","street1":"101 Independence Avenue, SE","city":"Washington","state":"US-DC","postalCode":"20540","country":"US","latitude":38.88863,"longitude":-77.00475,"distance":6528.602785373047,"distanceUnit":"K","oclcNumber":"1111288319"},{"oclcSymbol":"LNN","registryId":114986,"institutionName":"Library of Congress, Cataloging Directorate","institutionType":"REGIONAL_OR_NATIONAL","street1":"101 Independence Avenue, SE","city":"Washington","state":"US-DC","postalCode":"20540","country":"US","latitude":38.88697,"longitude":-77.00466,"distance":6528.719426450103,"distanceUnit":"K","oclcNumber":"1111288319"},{"oclcSymbol":"CGU","registryId":110147,"institutionName":"University of Chicago Library","institutionType":"ACADEMIC","street1":"1100 E. 57th Street","city":"Chicago","state":"US-IL","postalCode":"60637","country":"US","latitude":41.792255,"longitude":-87.599976,"distance":6968.537876102337,"distanceUnit":"K","oclcNumber":"1111288319"},{"oclcSymbol":"CUY","registryId":5689,"institutionName":"UC Berkeley Libraries","institutionType":"ACADEMIC","street1":"133 Doe Library","street2":"University of California","city":"Berkeley","state":"US-CA","postalCode":"94720-6000","country":"US","latitude":37.87575,"longitude":-122.24341,"distance":9115.023971148703,"distanceUnit":"K","oclcNumber":"1111288319"},{"oclcSymbol":"CRU","registryId":208,"institutionName":"University of California, Riverside","institutionType":"ACADEMIC","alsoCalled":"UCR","street1":"Ill - Rivera Library / University of California","street2":"3401 Watkins Drive","city":"Riverside","state":"US-CA","postalCode":"92521-0409","country":"US","latitude":33.972725,"longitude":-117.32714,"distance":9265.311926603366,"distanceUnit":"K","oclcNumber":"1111288319"},{"oclcSymbol":"ZAS","registryId":5620,"institutionName":"University of California Los Angeles","institutionType":"ACADEMIC","alsoCalled":"Southern Regional Library Facility","street1":"Southern Regional Libr Fac","street2":"305 de Neve Drive, Box 951388","city":"Los Angeles","state":"US-CA","postalCode":"90095-1388","country":"US","latitude":34.05678,"longitude":-118.24259,"distance":9301.110233238789,"distanceUnit":"K","oclcNumber":"1111288319"},{"oclcSymbol":"CLU","registryId":207,"institutionName":"University of California, Los Angeles","institutionType":"ACADEMIC","street1":"280 Charles E. Young Dr.","city":"Los Angeles","state":"US-CA","postalCode":"90255","country":"US","latitude":34.07501,"longitude":-118.441185,"distance":9308.793889187069,"distanceUnit":"K","oclcNumber":"1111288319"},{"oclcSymbol":"L2U","registryId":53238,"institutionName":"Leiden University Libraries","institutionType":"ACADEMIC","alsoCalled":"Universitaire Bibliotheken Leiden","street1":"Witte Singel 27","city":"Leiden","postalCode":"2311 BG","country":"NL","latitude":52.157307,"longitude":4.481427,"distance":370.5077498902995,"distanceUnit":"K","oclcNumber":"1076896206"},{"oclcSymbol":"LOA","registryId":53921,"institutionName":"SOAS University of London","institutionType":"ACADEMIC","alsoCalled":"University of London, School of Oriental and African Studies","street1":"Thornhaugh Street","street2":"Russell Square","city":"London","postalCode":"WC1H 0XG","country":"GB","latitude":51.52235,"longitude":-0.129275,"distance":638.0296394410018,"distanceUnit":"K","oclcNumber":"1076896206"},{"oclcSymbol":"YUS","registryId":544,"institutionName":"Yale University Library","institutionType":"ACADEMIC","street1":"Sterling Mem Libr 130 Wall St","street2":"PO Box 208240","city":"New Haven","state":"US-CT","postalCode":"06520-8240","country":"US","latitude":41.309837,"longitude":-72.92811,"distance":6090.136001032786,"distanceUnit":"K","oclcNumber":"1076896206"},{"oclcSymbol":"COO","registryId":3913,"institutionName":"Cornell University Library","institutionType":"ACADEMIC","street1":"201 Olin Library","city":"Ithaca","state":"US-NY","postalCode":"14853-5301","country":"US","latitude":42.44667,"longitude":-76.495735,"distance":6238.384448048609,"distanceUnit":"K","oclcNumber":"1076896206"},