{"oclcSymbol":"CNZJL","registryId":37796,"institutionName":"Zhejiang Library","institutionType":"ACADEMIC","street1":"73 Shunguang Rd","city":"Hangzhou","postalCode":"310007","country":"CN","latitude":30.252625,"longitude":120.16508,"distance":8829.489417753091,"distanceUnit":"K","oclcNumber":"1097897869"},{"oclcSymbol":"U@L","registryId":65553,"institutionName":"University of Macau","institutionType":"ACADEMIC","street1":"Wu Yee Sun Library, University of Macau, E2","street2":"Avenida da Universidade, Taipa","city":"Macau","country":"CN","latitude":22.129786,"longitude":113.54599,"distance":9133.250593588788,"distanceUnit":"K","oclcNumber":"1097897869"},{"oclcSymbol":"YUS","registryId":544,"institutionName":"Yale University Library","institutionType":"ACADEMIC","street1":"Sterling Mem Libr 130 Wall St","street2":"PO Box 208240","city":"New Haven","state":"US-CT","postalCode":"06520-8240","country":"US","latitude":41.309837,"longitude":-72.92811,"distance":6090.136001032786,"distanceUnit":"K","oclcNumber":"1125014115"},{"oclcSymbol":"EYM","registryId":5293,"institutionName":"University of Michigan","institutionType":"ACADEMIC","alsoCalled":"University of Michigan - Ann Arbor","street1":"818 Hatcher Graduate Library","street2":"913 S. University Avenue","city":"Ann Arbor","state":"US-MI","postalCode":"48109-1190","country":"US","latitude":42.2763,"longitude":-83.7382,"distance":6699.5468970135225,"distanceUnit":"K","oclcNumber":"1125014115"},{"oclcSymbol":"CNZJL","registryId":37796,"institutionName":"Zhejiang Library","institutionType":"ACADEMIC","street1":"73 Shunguang Rd","city":"Hangzhou","postalCode":"310007","country":"CN","latitude":30.252625,"longitude":120.16508,"distance":8829.489417753091,"distanceUnit":"K","oclcNumber":"1125014115"},{"oclcSymbol":"CUV","registryId":5697,"institutionName":"University of California, Davis","institutionType":"ACADEMIC","alsoCalled":"Shields Library","street1":"100 NW Quad","city":"Davis","state":"US-CA","postalCode":"95616-5292","country":"US","latitude":38.539604,"longitude":-121.749374,"distance":9029.526591310521,"distanceUnit":"K","oclcNumber":"1125014115"},{"oclcSymbol":"CNZJL","registryId":37796,"institutionName":"Zhejiang Library","institutionType":"ACADEMIC","street1":"73 Shunguang Rd","city":"Hangzhou","postalCode":"310007","country":"CN","latitude":30.252625,"longitude":120.16508,"distance":8829.489417753091,"distanceUnit":"K","oclcNumber":"1097642281"},{"oclcSymbol":"CNZJL","registryId":37796,"institutionName":"Zhejiang Library","institutionType":"ACADEMIC","street1":"73 Shunguang Rd","city":"Hangzhou","postalCode":"310007","country":"CN","latitude":30.252625,"longitude":120.16508,"distance":8829.489417753091,"distanceUnit":"K","oclcNumber":"1126586977"},{"oclcSymbol":"CNZJL","registryId":37796,"institutionName":"Zhejiang Library","institutionType":"ACADEMIC","street1":"73 Shunguang Rd","city":"Hangzhou","postalCode":"310007","country":"CN","latitude":30.252625,"longitude":120.16508,"distance":8829.489417753091,"distanceUnit":"K","oclcNumber":"1252391059"},{"oclcSymbol":"CCHGZ","registryId":112222,"institutionName":"Hangzhou Public Library","institutionType":"PUBLIC","alsoCalled":"杭州图书馆","street1":"No 58 Jiefangdonglu","city":"Hangzhou，Zhejiang","postalCode":"310016","country":"CN","latitude":30.252625,"longitude":120.16508,"distance":8829.489417753091,"distanceUnit":"K","oclcNumber":"1252391059"},{"oclcSymbol":"U@L","registryId":65553,"institutionName":"University of Macau","institutionType":"ACADEMIC","street1":"Wu Yee Sun Library, University of Macau, E2","street2":"Avenida da Universidade, Taipa","city":"Macau","country":"CN","latitude":22.129786,"longitude":113.54599,"distance":9133.250593588788,"distanceUnit":"K","oclcNumber":"1252391059"},{"oclcSymbol":"CNZJL","registryId":37796,"institutionName":"Zhejiang Library","institutionType":"ACADEMIC","street1":"73 Shunguang Rd","city":"Hangzhou","postalCode":"310007","country":"CN","latitude":30.252625,"longitude":120.16508,"distance":8829.489417753091,"distanceUnit":"K","oclcNumber":"1199121630"},{"oclcSymbol":"CNZJL","registryId":37796,"institutionName":"Zhejiang Library","institutionType":"ACADEMIC","street1":"73 Shunguang Rd","city":"Hangzhou","postalCode":"310007","country":"CN","latitude":30.252625,"longitude":120.16508,"distance":8829.489417753091,"distanceUnit":"K","oclcNumber":"1178852046"},{"oclcSymbol":"CNZJL","registryId":37796,"institutionName":"Zhejiang Library","institutionType":"ACADEMIC","street1":"73 Shunguang Rd","city":"Hangzhou","postalCode":"310007","country":"CN","latitude":30.252625,"longitude":120.16508,"distance":8829.489417753091,"distanceUnit":"K","oclcNumber":"1266077729"},{"oclcSymbol":"CNZJL","registryId":37796,"institutionName":"Zhejiang Library","institutionType":"ACADEMIC","street1":"73 Shunguang Rd","city":"Hangzhou","postalCode":"310007","country":"CN","latitude":30.252625,"longitude":120.16508,"distance":8829.489417753091,"distanceUnit":"K","oclcNumber":"1178857978"},{"oclcSymbol":"CNZJL","registryId":37796,"institutionName":"Zhejiang Library","institutionType":"ACADEMIC","street1":"73 Shunguang Rd","city":"Hangzhou","postalCode":"310007","country":"CN","latitude":30.252625,"longitude":120.16508,"distance":8829.489417753091,"distanceUnit":"K","oclcNumber":"1112274369"},{"oclcSymbol":"CNZJL","registryId":37796,"institutionName":"Zhejiang Library","institutionType":"ACADEMIC","street1":"73 Shunguang Rd","city":"Hangzhou","postalCode":"310007","country":"CN","latitude":30.252625,"longitude":120.16508,"distance":8829.489417753091,"distanceUnit":"K","oclcNumber":"1178852031"},{"oclcSymbol":"THHCU","registryId":215990,"institutionName":"Huachiew Chalermprakiet University","institutionType":"ACADEMIC","alsoCalled":"HCU","street1":"18/18 Bang Na-Trat Frontage Rd Tambon Bang Chalong, Amphoe Bang Phli","city":"Chang Wat Samut Prakan","postalCode":"10540","country":"TH","latitude":13.614647,"longitude":100.75916,"distance":8995.801220925305,"distanceUnit":"K","oclcNumber":"1293492139"},{"oclcSymbol":"THHCU","registryId":215990,"institutionName":"Huachiew Chalermprakiet University","institutionType":"ACADEMIC","alsoCalled":"HCU","street1":"18/18 Bang Na-Trat Frontage Rd Tambon Bang Chalong, Amphoe Bang Phli","city":"Chang Wat Samut Prakan","postalCode":"10540","country":"TH","latitude":13.614647,"longitude":100.75916,"distance":8995.801220925305,"distanceUnit":"K","oclcNumber":"1293641126"},{"oclcSymbol":"THHCU","registryId":215990,"institutionName":"Huachiew Chalermprakiet University","institutionType":"ACADEMIC","alsoCalled":"HCU","street1":"18/18 Bang Na-Trat Frontage Rd Tambon Bang Chalong, Amphoe Bang Phli","city":"Chang Wat Samut Prakan","postalCode":"10540","country":"TH","latitude":13.614647,"longitude":100.75916,"distance":8995.801220925305,"distanceUnit":"K","oclcNumber":"1411992247"},{"oclcSymbol":"CNZJL","registryId":37796,"institutionName":"Zhejiang Library","institutionType":"ACADEMIC","street1":"73 Shunguang Rd","city":"Hangzhou","postalCode":"310007","country":"CN","latitude":30.252625,"longitude":120.16508,"distance":8829.489417753091,"distanceUnit":"K","oclcNumber":"1178826096"},{"oclcSymbol":"CNZJL","registryId":37796,"institutionName":"Zhejiang Library","institutionType":"ACADEMIC","street1":"73 Shunguang Rd","city":"Hangzhou","postalCode":"310007","country":"CN","latitude":30.252625,"longitude":120.16508,"distance":8829.489417753091,"distanceUnit":"K","oclcNumber":"1178852267"},{"oclcSymbol":"THHCU","registryId":215990,"institutionName":"Huachiew Chalermprakiet University","institutionType":"ACADEMIC","alsoCalled":"HCU","street1":"18/18 Bang Na-Trat Frontage Rd Tambon Bang Chalong, Amphoe Bang Phli","city":"Chang Wat Samut Prakan","postalCode":"10540","country":"TH","latitude":13.614647,"longitude":100.75916,"distance":8995.801220925305,"distanceUnit":"K","oclcNumber":"1291387933"},{"oclcSymbol":"CNZJL","registryId":37796,"institutionName":"Zhejiang Library","institutionType":"ACADEMIC","street1":"73 Shunguang Rd","city":"Hangzhou","postalCode":"310007","country":"CN","latitude":30.252625,"longitude":120.16508,"distance":8829.489417753091,"distanceUnit":"K","oclcNumber":"1178847284"},{"oclcSymbol":"YUS","registryId":544,"institutionName":"Yale University Library","institutionType":"ACADEMIC","street1":"Sterling Mem Libr 130 Wall St","street2":"PO Box 208240","city":"New Haven","state":"US-CT","postalCode":"06520-8240","country":"US","latitude":41.309837,"longitude":-72.92811,"distance":6090.136001032786,"distanceUnit":"K","oclcNumber":"1123210740"},{"oclcSymbol":"CNZJL","registryId":37796,"institutionName":"Zhejiang Library","institutionType":"ACADEMIC","street1":"73 Shunguang Rd","city":"Hangzhou","postalCode":"310007","country":"CN","latitude":30.252625,"longitude":120.16508,"distance":8829.489417753091,"distanceUnit":"K","oclcNumber":"1123210740"},{"oclcSymbol":"NUI","registryId":57888,"institutionName":"University of Iowa Libraries","institutionType":"ACADEMIC","street1":"125 W Washington St.","city":"Iowa City","state":"US-IA","postalCode":"52242-1479","country":"US","latitude":41.659412,"longitude":-91.53811,"distance":7210.150876398513,"distanceUnit":"K","oclcNumber":"1081310601"},{"oclcSymbol":"EMU","registryId":699,"institutionName":"Emory University","institutionType":"ACADEMIC","alsoCalled":"Robert W. Woodruff Library (Woodruff Main Library)","street1":"Robert W. Woodruff Library","street2":"540 Asbury Circle, NE","city":"Atlanta","state":"US-GA","postalCode":"30322","country":"US","latitude":33.79044,"longitude":-84.32282,"distance":7393.571775966326,"distanceUnit":"K","oclcNumber":"1081310601"},{"oclcSymbol":"CNZJL","registryId":37796,"institutionName":"Zhejiang Library","institutionType":"ACADEMIC","street1":"73 Shunguang Rd","city":"Hangzhou","postalCode":"310007","country":"CN","latitude":30.252625,"longitude":120.16508,"distance":8829.489417753091,"distanceUnit":"K","oclcNumber":"1081310601"},{"oclcSymbol":"CLU","registryId":207,"institutionName":"University of California, Los Angeles","institutionType":"ACADEMIC","street1":"280 Charles E. Young Dr.","city":"Los Angeles","state":"US-CA","postalCode":"90255","country":"US","latitude":34.07501,"longitude":-118.441185,"distance":9308.793889187069,"distanceUnit":"K","oclcNumber":"1081310601"},{"oclcSymbol":"CNZJL","registryId":37796,"institutionName":"Zhejiang Library","institutionType":"ACADEMIC","street1":"73 Shunguang Rd","city":"Hangzhou","postalCode":"310007","country":"CN","latitude":30.252625,"longitude":120.16508,"distance":8829.489417753091,"distanceUnit":"K","oclcNumber":"1097639171"},{"oclcSymbol":"NZAUC","registryId":58181,"institutionName":"Auckland Libraries","institutionType":"PUBLIC","street1":"Central City Library","street2":"44-46 Lorne Street","city":"Auckland","postalCode":"1010","country":"NZ","latitude":-36.851765,"longitude":174.76541,"distance":18166.661566410658,"distanceUnit":"K","oclcNumber":"1097639171"},{"oclcSymbol":"ZQP","registryId":71949,"institutionName":"Queens Public Library","institutionType":"PUBLIC","alsoCalled":"Queens Library: Queens Borough Public Library","street1":"89-11 Merrick Boulevard","city":"Jamaica","state":"US-NY","postalCode":"11432","country":"US","latitude":40.707787,"longitude":-73.794716,"distance":6188.807886451222,"distanceUnit":"K","oclcNumber":"1078922399"},{"oclcSymbol":"CCHGZ","registryId":112222,"institutionName":"Hangzhou Public Library","institutionType":"PUBLIC","alsoCalled":"杭州图书馆","street1":"No 58 Jiefangdonglu","city":"Hangzhou，Zhejiang","postalCode":"310016","country":"CN","latitude":30.252625,"longitude":120.16508,"distance":8829.489417753091,"distanceUnit":"K","oclcNumber":"1078922399"},{"oclcSymbol":"ZQP","registryId":71949,"institutionName":"Queens Public Library","institutionType":"PUBLIC","alsoCalled":"Queens Library: Queens Borough Public Library","street1":"89-11 Merrick Boulevard","city":"Jamaica","state":"US-NY","postalCode":"11432","country":"US","latitude":40.707787,"longitude":-73.794716,"distance":6188.807886451222,"distanceUnit":"K","oclcNumber":"1078151272"},{"oclcSymbol":"NLM","registryId":57363,"institutionName":"National Library of Medicine","institutionType":"REGIONAL_OR_NATIONAL","street1":"8600 Rockville Pike","city":"Bethesda","state":"US-MD","postalCode":"20894","country":"US","latitude":38.988407,"longitude":-77.09647,"distance":6527.178392192386,"distanceUnit":"K","oclcNumber":"1089174254"},{"oclcSymbol":"CNZJL","registryId":37796,"institutionName":"Zhejiang Library","institutionType":"ACADEMIC","street1":"73 Shunguang Rd","city":"Hangzhou","postalCode":"310007","country":"CN","latitude":30.252625,"longitude":120.16508,"distance":8829.489417753091,"distanceUnit":"K","oclcNumber":"1089174254"},{"oclcSymbol":"SINLB","registryId":63464,"institutionName":"National Library Board, Singapore","institutionType":"REGIONAL_OR_NATIONAL","street1":"National Library Board,","street2":"100 Victoria Street, #14-01, National Library Building","city":"Singapore","postalCode":"188064","country":"SG","latitude":1.297366,"longitude":103.85384,"distance":10264.410371761638,"distanceUnit":"K","oclcNumber":"1089174254"},{"oclcSymbol":"F3U","registryId":21145,"institutionName":"Freie Universität Berlin, Universitätsbibliothek","institutionType":"ACADEMIC","alsoCalled":"Universitätsbibliothek, Freie Universität Berlin","street1":"Garystr. 39","city":"Berlin","postalCode":"14195","country":"DE","latitude":52.44795,"longitude":13.277483,"distance":411.0906695690905,"distanceUnit":"K","oclcNumber":"1142546567"},{"oclcSymbol":"CNZJL","registryId":37796,"institutionName":"Zhejiang Library","institutionType":"ACADEMIC","street1":"73 Shunguang Rd","city":"Hangzhou","postalCode":"310007","country":"CN","latitude":30.252625,"longitude":120.16508,"distance":8829.489417753091,"distanceUnit":"K","oclcNumber":"1142546567"},{"oclcSymbol":"ZQP","registryId":71949,"institutionName":"Queens Public Library","institutionType":"PUBLIC","alsoCalled":"Queens Library: Queens Borough Public Library","street1":"89-11 Merrick Boulevard","city":"Jamaica","state":"US-NY","postalCode":"11432","country":"US","latitude":40.707787,"longitude":-73.794716,"distance":6188.807886451222,"distanceUnit":"K","oclcNumber":"1078151846"},{"oclcSymbol":"CNZJL","registryId":37796,"institutionName":"Zhejiang Library","institutionType":"ACADEMIC","street1":"73 Shunguang Rd","city":"Hangzhou","postalCode":"310007","country":"CN","latitude":30.252625,"longitude":120.16508,"distance":8829.489417753091,"distanceUnit":"K","oclcNumber":"1078151846"},{"oclcSymbol":"CNZJL","registryId":37796,"institutionName":"Zhejiang Library","institutionType":"ACADEMIC","street1":"73 Shunguang Rd","city":"Hangzhou","postalCode":"310007","country":"CN","latitude":30.252625,"longitude":120.16508,"distance":8829.489417753091,"distanceUnit":"K","oclcNumber":"1154343012"},{"oclcSymbol":"CNZJL","registryId":37796,"institutionName":"Zhejiang Library","institutionType":"ACADEMIC","street1":"73 Shunguang Rd","city":"Hangzhou","postalCode":"310007","country":"CN","latitude":30.252625,"longitude":120.16508,"distance":8829.489417753091,"distanceUnit":"K","oclcNumber":"1134150048"},{"oclcSymbol":"CNZJL","registryId":37796,"institutionName":"Zhejiang Library","institutionType":"ACADEMIC","street1":"73 Shunguang Rd","city":"Hangzhou","postalCode":"310007","country":"CN","latitude":30.252625,"longitude":120.16508,"distance":8829.489417753091,"distanceUnit":"K","oclcNumber":"1104950208"},{"oclcSymbol":"CCHGZ","registryId":112222,"institutionName":"Hangzhou Public Library","institutionType":"PUBLIC","alsoCalled":"杭州图书馆","street1":"No 58 Jiefangdonglu","city":"Hangzhou，Zhejiang","postalCode":"310016","country":"CN","latitude":30.252625,"longitude":120.16508,"distance":8829.489417753091,"distanceUnit":"K","oclcNumber":"1129630201"},{"oclcSymbol":"THHCU","registryId":215990,"institutionName":"Huachiew Chalermprakiet University","institutionType":"ACADEMIC","alsoCalled":"HCU","street1":"18/18 Bang Na-Trat Frontage Rd Tambon Bang Chalong, Amphoe Bang Phli","city":"Chang Wat Samut Prakan","postalCode":"10540","country":"TH","latitude":13.614647,"longitude":100.75916,"distance":8995.801220925305,"distanceUnit":"K","oclcNumber":"1412141873"},{"oclcSymbol":"THHCU","registryId":215990,"institutionName":"Huachiew Chalermprakiet University","institutionType":"ACADEMIC","alsoCalled":"HCU","street1":"18/18 Bang Na-Trat Frontage Rd Tambon Bang Chalong, Amphoe Bang Phli","city":"Chang Wat Samut Prakan","postalCode":"10540","country":"TH","latitude":13.614647,"longitude":100.75916,"distance":8995.801220925305,"distanceUnit":"K","oclcNumber":"1412137159"},{"oclcSymbol":"MLN","registryId":86798,"institutionName":"Minuteman Library Network","institutionType":"LIBRARY_NETWORK_GROUP","street1":"10 Strathmore Rd","city":"Natick","state":"US-MA","postalCode":"01760","country":"US","latitude":42.28951,"longitude":-71.35502,"distance":5920.2835824333615,"distanceUnit":"K","oclcNumber":"1311442647"},{"oclcSymbol":"CNZJL","registryId":37796,"institutionName":"Zhejiang Library","institutionType":"ACADEMIC","street1":"73 Shunguang Rd","city":"Hangzhou","postalCode":"310007","country":"CN","latitude":30.252625,"longitude":120.16508,"distance":8829.489417753091,"distanceUnit":"K","oclcNumber":"1104951276"},{"oclcSymbol":"CNZJL","registryId":37796,"institutionName":"Zhejiang Library","institutionType":"ACADEMIC","street1":"73 Shunguang Rd","city":"Hangzhou","postalCode":"310007","country":"CN","latitude":30.252625,"longitude":120.16508,"distance":8829.489417753091,"distanceUnit":"K","oclcNumber":"1112270867"},{"oclcSymbol":"CLE","registryId":14223,"institutionName":"Cleveland Public Library","institutionType":"PUBLIC","alsoCalled":"Main Library","street1":"325 Superior Avenue","city":"Cleveland","state":"US-OH","postalCode":"44114-1271","country":"US","latitude":41.501495,"longitude":-81.690865,"distance":6631.954934408229,"distanceUnit":"K","oclcNumber":"1265931389"},{"oclcSymbol":"CCHGZ","registryId":112222,"institutionName":"Hangzhou Public Library","institutionType":"PUBLIC","alsoCalled":"杭州图书馆","street1":"No 58 Jiefangdonglu","city":"Hangzhou，Zhejiang","postalCode":"310016","country":"CN","latitude":30.252625,"longitude":120.16508,"distance":8829.489417753091,"distanceUnit":"K","oclcNumber":"1265931389"},{"oclcSymbol":"ZQP","registryId":71949,"institutionName":"Queens Public Library","institutionType":"PUBLIC","alsoCalled":"Queens Library: Queens Borough Public Library","street1":"89-11 Merrick Boulevard","city":"Jamaica","state":"US-NY","postalCode":"11432","country":"US","latitude":40.707787,"longitude":-73.794716,"distance":6188.807886451222,"distanceUnit":"K","oclcNumber":"1129644625"},{"oclcSymbol":"NYP","registryId":58122,"institutionName":"New York Public Library System","institutionType":"PUBLIC","alsoCalled":"NYPL","street1":"Fifth Avenue at 42nd Street","city":"New York","state":"US-NY","postalCode":"10018-2788","country":"US","latitude":40.753498,"longitude":-73.98089,"distance":6197.636374105711,"distanceUnit":"K","oclcNumber":"1129644625"},{"oclcSymbol":"BKL","registryId":13437,"institutionName":"Brooklyn Public Library","institutionType":"PUBLIC","alsoCalled":"Central Library","street1":"10 Grand Army Plaza","city":"Brooklyn","state":"US-NY","postalCode":"11238","country":"US","latitude":40.6725,"longitude":-73.968124,"distance":6202.563161536748,"distanceUnit":"K","oclcNumber":"1129644625"},{"oclcSymbol":"SINLB","registryId":63464,"institutionName":"National Library Board, Singapore","institutionType":"REGIONAL_OR_NATIONAL","street1":"National Library Board,","street2":"100 Victoria Street, #14-01, National Library Building","city":"Singapore","postalCode":"188064","country":"SG","latitude":1.297366,"longitude":103.85384,"distance":10264.410371761638,"distanceUnit":"K","oclcNumber":"1129644625"},{"oclcSymbol":"CNZJL","registryId":37796,"institutionName":"Zhejiang Library","institutionType":"ACADEMIC","street1":"73 Shunguang Rd","city":"Hangzhou","postalCode":"310007","country":"CN","latitude":30.252625,"longitude":120.16508,"distance":8829.489417753091,"distanceUnit":"K","oclcNumber":"1130336318"},{"oclcSymbol":"CCHGZ","registryId":112222,"institutionName":"Hangzhou Public Library","institutionType":"PUBLIC","alsoCalled":"杭州图书馆","street1":"No 58 Jiefangdonglu","city":"Hangzhou，Zhejiang","postalCode":"310016","country":"CN","latitude":30.252625,"longitude":120.16508,"distance":8829.489417753091,"distanceUnit":"K","oclcNumber":"1198139430"},{"oclcSymbol":"LZT","registryId":40190,"institutionName":"State Library of Western Australia","institutionType":"REGIONAL_OR_NATIONAL","alsoCalled":"Alexander Library","street1":"25 Francis Street","street2":"Perth Cultural Centre","city":"Perth","state":"AU-WA","postalCode":"6000","country":"AU","latitude":-31.948996,"longitude":115.86049,"distance":13845.661021138443,"distanceUnit":"K","oclcNumber":"1198139430"},{"oclcSymbol":"ATVMO","registryId":98607,"institutionName":"Monash Public Library Service","institutionType":"PUBLIC","street1":"41 Miller Crescent","city":"Mt Waverley","state":"AU-VI","postalCode":"3149","country":"AU","latitude":-37.87471,"longitude":145.12718,"distance":16335.962530065828,"distanceUnit":"K","oclcNumber":"1198139430"},{"oclcSymbol":"NZAUC","registryId":58181,"institutionName":"Auckland Libraries","institutionType":"PUBLIC","street1":"Central City Library","street2":"44-46 Lorne Street","city":"Auckland","postalCode":"1010","country":"NZ","latitude":-36.851765,"longitude":174.76541,"distance":18166.661566410658,"distanceUnit":"K","oclcNumber":"1198139430"},{"oclcSymbol":"ZQP","registryId":71949,"institutionName":"Queens Public Library","institutionType":"PUBLIC","alsoCalled":"Queens Library: Queens Borough Public Library","street1":"89-11 Merrick Boulevard","city":"Jamaica","state":"US-NY","postalCode":"11432","country":"US","latitude":40.707787,"longitude":-73.794716,"distance":6188.807886451222,"distanceUnit":"K","oclcNumber":"1129878672"},{"oclcSymbol":"NYP","registryId":58122,"institutionName":"New York Public Library System","institutionType":"PUBLIC","alsoCalled":"NYPL","street1":"Fifth Avenue at 42nd Street","city":"New York","state":"US-NY","postalCode":"10018-2788","country":"US","latitude":40.753498,"longitude":-73.98089,"distance":6197.636374105711,"distanceUnit":"K","oclcNumber":"1129878672"},{"oclcSymbol":"BKL","registryId":13437,"institutionName":"Brooklyn Public Library","institutionType":"PUBLIC","alsoCalled":"Central Library","street1":"10 Grand Army Plaza","city":"Brooklyn","state":"US-NY","postalCode":"11238","country":"US","latitude":40.6725,"longitude":-73.968124,"distance":6202.563161536748,"distanceUnit":"K","oclcNumber":"1129878672"},{"oclcSymbol":"SINLB","registryId":63464,"institutionName":"National Library Board, Singapore","institutionType":"REGIONAL_OR_NATIONAL","street1":"National Library Board,","street2":"100 Victoria Street, #14-01, National Library Building","city":"Singapore","postalCode":"188064","country":"SG","latitude":1.297366,"longitude":103.85384,"distance":10264.410371761638,"distanceUnit":"K","oclcNumber":"1129878672"},{"oclcSymbol":"ZQP","registryId":71949,"institutionName":"Queens Public Library","institutionType":"PUBLIC","alsoCalled":"Queens Library: Queens Borough Public Library","street1":"89-11 Merrick Boulevard","city":"Jamaica","state":"US-NY","postalCode":"11432","country":"US","latitude":40.707787,"longitude":-73.794716,"distance":6188.807886451222,"distanceUnit":"K","oclcNumber":"1198144791"},{"oclcSymbol":"NYP","registryId":58122,"institutionName":"New York Public Library System","institutionType":"PUBLIC","alsoCalled":"NYPL","street1":"Fifth Avenue at 42nd Street","city":"New York","state":"US-NY","postalCode":"10018-2788","country":"US","latitude":40.753498,"longitude":-73.98089,"distance":6197.636374105711,"distanceUnit":"K","oclcNumber":"1198144791"},{"oclcSymbol":"CCHGZ","registryId":112222,"institutionName":"Hangzhou Public Library","institutionType":"PUBLIC","alsoCalled":"杭州图书馆","street1":"No 58 Jiefangdonglu","city":"Hangzhou，Zhejiang","postalCode":"310016","country":"CN","latitude":30.252625,"longitude":120.16508,"distance":8829.489417753091,"distanceUnit":"K","oclcNumber":"1198144791"},{"oclcSymbol":"NYP","registryId":58122,"institutionName":"New York Public Library System","institutionType":"PUBLIC","alsoCalled":"NYPL","street1":"Fifth Avenue at 42nd Street","city":"New York","state":"US-NY","postalCode":"10018-2788","country":"US","latitude":40.753498,"longitude":-73.98089,"distance":6197.636374105711,"distanceUnit":"K","oclcNumber":"1198158375"},{"oclcSymbol":"CCHGZ","registryId":112222,"institutionName":"Hangzhou Public Library","institutionType":"PUBLIC","alsoCalled":"杭州图书馆","street1":"No 58 Jiefangdonglu","city":"Hangzhou，Zhejiang","postalCode":"310016","country":"CN","latitude":30.252625,"longitude":120.16508,"distance":8829.489417753091,"distanceUnit":"K","oclcNumber":"1198158375"},{"oclcSymbol":"AUBRI","registryId":40237,"institutionName":"Brisbane City Council Library Services","institutionType":"PUBLIC","alsoCalled":"BCC","street1":"266 George Street","city":"Brisbane","state":"AU-QL","postalCode":"4000","country":"AU","latitude":-27.471134,"longitude":153.02243,"distance":16089.881720847356,"distanceUnit":"K","oclcNumber":"1136561975"},{"oclcSymbol":"NZAUC","registryId":58181,"institutionName":"Auckland Libraries","institutionType":"PUBLIC","street1":"Central City Library","street2":"44-46 Lorne Street","city":"Auckland","postalCode":"1010","country":"NZ","latitude":-36.851765,"longitude":174.76541,"distance":18166.661566410658,"distanceUnit":"K","oclcNumber":"1222986955"},{"oclcSymbol":"NZCPL","registryId":21495,"institutionName":"Christchurch City Libraries","institutionType":"PUBLIC","street1":"60 Cathedral Square","city":"Christchurch","postalCode":"8011","country":"NZ","latitude":-43.530132,"longitude":172.63716,"distance":18594.698764266243,"distanceUnit":"K","oclcNumber":"1222986955"},{"oclcSymbol":"ATVCC","registryId":23154,"institutionName":"Casey-Cardinia Library Corp","institutionType":"PUBLIC","alsoCalled":"Cranbourne Library","street1":"Locked Bag 2400","city":"Cranbourne","postalCode":"VIC 3977","country":"AU","latitude":-38.08089,"longitude":145.26562,"distance":16359.219981607384,"distanceUnit":"K","oclcNumber":"1222986557"},{"oclcSymbol":"NZAUC","registryId":58181,"institutionName":"Auckland Libraries","institutionType":"PUBLIC","street1":"Central City Library","street2":"44-46 Lorne Street","city":"Auckland","postalCode":"1010","country":"NZ","latitude":-36.851765,"longitude":174.76541,"distance":18166.661566410658,"distanceUnit":"K","oclcNumber":"1222986557"},{"oclcSymbol":"NZCPL","registryId":21495,"institutionName":"Christchurch City Libraries","institutionType":"PUBLIC","street1":"60 Cathedral Square","city":"Christchurch","postalCode":"8011","country":"NZ","latitude":-43.530132,"longitude":172.63716,"distance":18594.698764266243,"distanceUnit":"K","oclcNumber":"1222986557"},{"oclcSymbol":"AUBRI","registryId":40237,"institutionName":"Brisbane City Council Library Services","institutionType":"PUBLIC","alsoCalled":"BCC","street1":"266 George Street","city":"Brisbane","state":"AU-QL","postalCode":"4000","country":"AU","latitude":-27.471134,"longitude":153.02243,"distance":16089.881720847356,"distanceUnit":"K","oclcNumber":"1222972099"},{"oclcSymbol":"SINLB","registryId":63464,"institutionName":"National Library Board, Singapore","institutionType":"REGIONAL_OR_NATIONAL","street1":"National Library Board,","street2":"100 Victoria Street, #14-01, National Library Building","city":"Singapore","postalCode":"188064","country":"SG","latitude":1.297366,"longitude":103.85384,"distance":10264.410371761638,"distanceUnit":"K","oclcNumber":"1222991425"},{"oclcSymbol":"AUBRI","registryId":40237,"institutionName":"Brisbane City Council Library Services","institutionType":"PUBLIC","alsoCalled":"BCC","street1":"266 George Street","city":"Brisbane","state":"AU-QL","postalCode":"4000","country":"AU","latitude":-27.471134,"longitude":153.02243,"distance":16089.881720847356,"distanceUnit":"K","oclcNumber":"1129671928"},{"oclcSymbol":"ATVMO","registryId":98607,"institutionName":"Monash Public Library Service","institutionType":"PUBLIC","street1":"41 Miller Crescent","city":"Mt Waverley","state":"AU-VI","postalCode":"3149","country":"AU","latitude":-37.87471,"longitude":145.12718,"distance":16335.962530065828,"distanceUnit":"K","oclcNumber":"1129671928"},{"oclcSymbol":"AUT","registryId":40260,"institutionName":"National Library of Australia","institutionType":"REGIONAL_OR_NATIONAL","street1":"Parkes Place","city":"Canberra","state":"AU-CT","postalCode":"2600","country":"AU","latitude":-35.29652,"longitude":149.12935,"distance":16442.15007078913,"distanceUnit":"K","oclcNumber":"1129671928"},{"oclcSymbol":"ZQP","registryId":71949,"institutionName":"Queens Public Library","institutionType":"PUBLIC","alsoCalled":"Queens Library: Queens Borough Public Library","street1":"89-11 Merrick Boulevard","city":"Jamaica","state":"US-NY","postalCode":"11432","country":"US","latitude":40.707787,"longitude":-73.794716,"distance":6188.807886451222,"distanceUnit":"K","oclcNumber":"1066695257"},{"oclcSymbol":"ZCU","registryId":4861,"institutionName":"Columbia University in the City of New York","institutionType":"ACADEMIC","alsoCalled":"Columbia University Libraries","street1":"535 West 114th Street","city":"New York","state":"US-NY","postalCode":"10027-7035","country":"US","latitude":40.806236,"longitude":-73.96326,"distance":6192.750022328971,"distanceUnit":"K","oclcNumber":"1176445139"},{"oclcSymbol":"WAU","registryId":5725,"institutionName":"University of Washington Libraries","institutionType":"ACADEMIC","street1":"Box 352900","city":"Seattle","state":"US-WA","postalCode":"98195-2900","country":"US","latitude":47.65368,"longitude":-122.29911,"distance":8173.278736712033,"distanceUnit":"K","oclcNumber":"1176445139"},{"oclcSymbol":"EYM","registryId":5293,"institutionName":"University of Michigan","institutionType":"ACADEMIC","alsoCalled":"University of Michigan - Ann Arbor","street1":"818 Hatcher Graduate Library","street2":"913 S. University Avenue","city":"Ann Arbor","state":"US-MI","postalCode":"48109-1190","country":"US","latitude":42.2763,"longitude":-83.7382,"distance":6699.5468970135225,"distanceUnit":"K","oclcNumber":"1090989993"},{"oclcSymbol":"WAU","registryId":5725,"institutionName":"University of Washington Libraries","institutionType":"ACADEMIC","street1":"Box 352900","city":"Seattle","state":"US-WA","postalCode":"98195-2900","country":"US","latitude":47.65368,"longitude":-122.29911,"distance":8173.278736712033,"distanceUnit":"K","oclcNumber":"1090989993"},{"oclcSymbol":"CCHGZ","registryId":112222,"institutionName":"Hangzhou Public Library","institutionType":"PUBLIC","alsoCalled":"杭州图书馆","street1":"No 58 Jiefangdonglu","city":"Hangzhou，Zhejiang","postalCode":"310016","country":"CN","latitude":30.252625,"longitude":120.16508,"distance":8829.489417753091,"distanceUnit":"K","oclcNumber":"1198142086"},{"oclcSymbol":"ZQP","registryId":71949,"institutionName":"Queens Public Library","institutionType":"PUBLIC","alsoCalled":"Queens Library: Queens Borough Public Library","street1":"89-11 Merrick Boulevard","city":"Jamaica","state":"US-NY","postalCode":"11432","country":"US","latitude":40.707787,"longitude":-73.794716,"distance":6188.807886451222,"distanceUnit":"K","oclcNumber":"1129640885"},{"oclcSymbol":"NYP","registryId":58122,"institutionName":"New York Public Library System","institutionType":"PUBLIC","alsoCalled":"NYPL","street1":"Fifth Avenue at 42nd Street","city":"New York","state":"US-NY","postalCode":"10018-2788","country":"US","latitude":40.753498,"longitude":-73.98089,"distance":6197.636374105711,"distanceUnit":"K","oclcNumber":"1129640885"},{"oclcSymbol":"BKL","registryId":13437,"institutionName":"Brooklyn Public Library","institutionType":"PUBLIC","alsoCalled":"Central Library","street1":"10 Grand Army Plaza","city":"Brooklyn","state":"US-NY","postalCode":"11238","country":"US","latitude":40.6725,"longitude":-73.968124,"distance":6202.563161536748,"distanceUnit":"K","oclcNumber":"1129640885"},{"oclcSymbol":"SISAS","registryId":23788,"institutionName":"Singapore American School","institutionType":"OTHER","street1":"40 Woodlands St 41","city":"Singapore","postalCode":"738547","country":"SG","latitude":1.43077,"longitude":103.77434,"distance":10247.35414964242,"distanceUnit":"K","oclcNumber":"1129640885"},{"oclcSymbol":"SINLB","registryId":63464,"institutionName":"National Library Board, Singapore","institutionType":"REGIONAL_OR_NATIONAL","street1":"National Library Board,","street2":"100 Victoria Street, #14-01, National Library Building","city":"Singapore","postalCode":"188064","country":"SG","latitude":1.297366,"longitude":103.85384,"distance":10264.410371761638,"distanceUnit":"K","oclcNumber":"1129640885"},{"oclcSymbol":"GO9","registryId":10182,"institutionName":"Schaumburg Township District Library","institutionType":"PUBLIC","street1":"130 South Roselle Road","city":"Schaumburg","state":"US-IL","postalCode":"60193-1647","country":"US","latitude":42.02542,"longitude":-88.0833,"distance":6979.125711978026,"distanceUnit":"K","oclcNumber":"1198141112"},{"oclcSymbol":"CCHGZ","registryId":112222,"institutionName":"Hangzhou Public Library","institutionType":"PUBLIC","alsoCalled":"杭州图书馆","street1":"No 58 Jiefangdonglu","city":"Hangzhou，Zhejiang","postalCode":"310016","country":"CN","latitude":30.252625,"longitude":120.16508,"distance":8829.489417753091,"distanceUnit":"K","oclcNumber":"1198141112"},{"oclcSymbol":"CCHGZ","registryId":112222,"institutionName":"Hangzhou Public Library","institutionType":"PUBLIC","alsoCalled":"杭州图书馆","street1":"No 58 Jiefangdonglu","city":"Hangzhou，Zhejiang","postalCode":"310016","country":"CN","latitude":30.252625,"longitude":120.16508,"distance":8829.489417753091,"distanceUnit":"K","oclcNumber":"1198155201"},{"oclcSymbol":"AUBRI","registryId":40237,"institutionName":"Brisbane City Council Library Services","institutionType":"PUBLIC","alsoCalled":"BCC","street1":"266 George Street","city":"Brisbane","state":"AU-QL","postalCode":"4000","country":"AU","latitude":-27.471134,"longitude":153.02243,"distance":16089.881720847356,"distanceUnit":"K","oclcNumber":"1198155201"},{"oclcSymbol":"AUT","registryId":40260,"institutionName":"National Library of Australia","institutionType":"REGIONAL_OR_NATIONAL","street1":"Parkes Place","city":"Canberra","state":"AU-CT","postalCode":"2600","country":"AU","latitude":-35.29652,"longitude":149.12935,"distance":16442.15007078913,"distanceUnit":"K","oclcNumber":"1198155201"},{"oclcSymbol":"NZAUC","registryId":58181,"institutionName":"Auckland Libraries","institutionType":"PUBLIC","street1":"Central City Library","street2":"44-46 Lorne Street","city":"Auckland","postalCode":"1010","country":"NZ","latitude":-36.851765,"longitude":174.76541,"distance":18166.661566410658,"distanceUnit":"K","oclcNumber":"1198155201"},{"oclcSymbol":"CCHGZ","registryId":112222,"institutionName":"Hangzhou Public Library","institutionType":"PUBLIC","alsoCalled":"杭州图书馆","street1":"No 58 Jiefangdonglu","city":"Hangzhou，Zhejiang","postalCode":"310016","country":"CN","latitude":30.252625,"longitude":120.16508,"distance":8829.489417753091,"distanceUnit":"K","oclcNumber":"1198150558"},{"oclcSymbol":"CCHGZ","registryId":112222,"institutionName":"Hangzhou Public Library","institutionType":"PUBLIC","alsoCalled":"杭州图书馆","street1":"No 58 Jiefangdonglu","city":"Hangzhou，Zhejiang","postalCode":"310016","country":"CN","latitude":30.252625,"longitude":120.16508,"distance":8829.489417753091,"distanceUnit":"K","oclcNumber":"1198150067"},{"oclcSymbol":"CCHGZ","registryId":112222,"institutionName":"Hangzhou Public Library","institutionType":"PUBLIC","alsoCalled":"杭州图书馆","street1":"No 58 Jiefangdonglu","city":"Hangzhou，Zhejiang","postalCode":"310016","country":"CN","latitude":30.252625,"longitude":120.16508,"distance":8829.489417753091,"distanceUnit":"K","oclcNumber":"1198152486"},{"oclcSymbol":"GO9","registryId":10182,"institutionName":"Schaumburg Township District Library","institutionType":"PUBLIC","street1":"130 South Roselle Road","city":"Schaumburg","state":"US-IL","postalCode":"60193-1647","country":"US","latitude":42.02542,"longitude":-88.0833,"distance":6979.125711978026,"distanceUnit":"K","oclcNumber":"1198146735"},{"oclcSymbol":"CCHGZ","registryId":112222,"institutionName":"Hangzhou Public Library","institutionType":"PUBLIC","alsoCalled":"杭州图书馆","street1":"No 58 Jiefangdonglu","city":"Hangzhou，Zhejiang","postalCode":"310016","country":"CN","latitude":30.252625,"longitude":120.16508,"distance":8829.489417753091,"distanceUnit":"K","oclcNumber":"1198146735"},{"oclcSymbol":"CCHGZ","registryId":112222,"institutionName":"Hangzhou Public Library","institutionType":"PUBLIC","alsoCalled":"杭州图书馆","street1":"No 58 Jiefangdonglu","city":"Hangzhou，Zhejiang","postalCode":"310016","country":"CN","latitude":30.252625,"longitude":120.16508,"distance":8829.489417753091,"distanceUnit":"K","oclcNumber":"1198139457"},{"oclcSymbol":"CNZJL","registryId":37796,"institutionName":"Zhejiang Library","institutionType":"ACADEMIC","street1":"73 Shunguang Rd","city":"Hangzhou","postalCode":"310007","country":"CN","latitude":30.252625,"longitude":120.16508,"distance":8829.489417753091,"distanceUnit":"K","oclcNumber":"1265954046"},{"oclcSymbol":"GO9","registryId":10182,"institutionName":"Schaumburg Township District Library","institutionType":"PUBLIC","street1":"130 South Roselle Road","city":"Schaumburg","state":"US-IL","postalCode":"60193-1647","country":"US","latitude":42.02542,"longitude":-88.0833,"distance":6979.125711978026,"distanceUnit":"K","oclcNumber":"1198153261"},{"oclcSymbol":"CCHGZ","registryId":112222,"institutionName":"Hangzhou Public Library","institutionType":"PUBLIC","alsoCalled":"杭州图书馆","street1":"No 58 Jiefangdonglu","city":"Hangzhou，Zhejiang","postalCode":"310016","country":"CN","latitude":30.252625,"longitude":120.16508,"distance":8829.489417753091,"distanceUnit":"K","oclcNumber":"1198153261"},{"oclcSymbol":"CCHGZ","registryId":112222,"institutionName":"Hangzhou Public Library","institutionType":"PUBLIC","alsoCalled":"杭州图书馆","street1":"No 58 Jiefangdonglu","city":"Hangzhou，Zhejiang","postalCode":"310016","country":"CN","latitude":30.252625,"longitude":120.16508,"distance":8829.489417753091,"distanceUnit":"K","oclcNumber":"1198141704"},{"oclcSymbol":"OTP","registryId":59020,"institutionName":"Ottawa Public Library, Ottawa","institutionType":"PUBLIC","alsoCalled":"Bibliothèque publique d'Ottawa, Ottawa","street1":"100 Tallwood Dr.","city":"Ottawa","state":"CA-ON","postalCode":"K2G 4R7","country":"CA","latitude":45.420315,"longitude":-75.69542,"distance":5981.579533216023,"distanceUnit":"K","oclcNumber":"1129687340"},{"oclcSymbol":"SINLB","registryId":63464,"institutionName":"National Library Board, Singapore","institutionType":"REGIONAL_OR_NATIONAL","street1":"National Library Board,","street2":"100 Victoria Street, #14-01, National Library Building","city":"Singapore","postalCode":"188064","country":"SG","latitude":1.297366,"longitude":103.85384,"distance":10264.410371761638,"distanceUnit":"K","oclcNumber":"1129687340"},{"oclcSymbol":"MLN","registryId":86798,"institutionName":"Minuteman Library Network","institutionType":"LIBRARY_NETWORK_GROUP","street1":"10 Strathmore Rd","city":"Natick","state":"US-MA","postalCode":"01760","country":"US","latitude":42.28951,"longitude":-71.35502,"distance":5920.2835824333615,"distanceUnit":"K","oclcNumber":"1129676079"},{"oclcSymbol":"SINLB","registryId":63464,"institutionName":"National Library Board, Singapore","institutionType":"REGIONAL_OR_NATIONAL","street1":"National Library Board,","street2":"100 Victoria Street, #14-01, National Library Building","city":"Singapore","postalCode":"188064","country":"SG","latitude":1.297366,"longitude":103.85384,"distance":10264.410371761638,"distanceUnit":"K","oclcNumber":"1129676079"},{"oclcSymbol":"CCHGZ","registryId":112222,"institutionName":"Hangzhou Public Library","institutionType":"PUBLIC","alsoCalled":"杭州图书馆","street1":"No 58 Jiefangdonglu","city":"Hangzhou，Zhejiang","postalCode":"310016","country":"CN","latitude":30.252625,"longitude":120.16508,"distance":8829.489417753091,"distanceUnit":"K","oclcNumber":"1198143103"},{"oclcSymbol":"CCHGZ","registryId":112222,"institutionName":"Hangzhou Public Library","institutionType":"PUBLIC","alsoCalled":"杭州图书馆","street1":"No 58 Jiefangdonglu","city":"Hangzhou，Zhejiang","postalCode":"310016","country":"CN","latitude":30.252625,"longitude":120.16508,"distance":8829.489417753091,"distanceUnit":"K","oclcNumber":"1198153382"},{"oclcSymbol":"CCHGZ","registryId":112222,"institutionName":"Hangzhou Public Library","institutionType":"PUBLIC","alsoCalled":"杭州图书馆","street1":"No 58 Jiefangdonglu","city":"Hangzhou，Zhejiang","postalCode":"310016","country":"CN","latitude":30.252625,"longitude":120.16508,"distance":8829.489417753091,"distanceUnit":"K","oclcNumber":"1198148185"},{"oclcSymbol":"CNZJL","registryId":37796,"institutionName":"Zhejiang Library","institutionType":"ACADEMIC","street1":"73 Shunguang Rd","city":"Hangzhou","postalCode":"310007","country":"CN","latitude":30.252625,"longitude":120.16508,"distance":8829.489417753091,"distanceUnit":"K","oclcNumber":"1178948995"},{"oclcSymbol":"U@L","registryId":65553,"institutionName":"University of Macau","institutionType":"ACADEMIC","street1":"Wu Yee Sun Library, University of Macau, E2","street2":"Avenida da Universidade, Taipa","city":"Macau","country":"CN","latitude":22.129786,"longitude":113.54599,"distance":9133.250593588788,"distanceUnit":"K","oclcNumber":"1178948995"},{"oclcSymbol":"CCHGZ","registryId":112222,"institutionName":"Hangzhou Public Library","institutionType":"PUBLIC","alsoCalled":"杭州图书馆","street1":"No 58 Jiefangdonglu","city":"Hangzhou，Zhejiang","postalCode":"310016","country":"CN","latitude":30.252625,"longitude":120.16508,"distance":8829.489417753091,"distanceUnit":"K","oclcNumber":"1243224269"},{"oclcSymbol":"CCHGZ","registryId":112222,"institutionName":"Hangzhou Public Library","institutionType":"PUBLIC","alsoCalled":"杭州图书馆","street1":"No 58 Jiefangdonglu","city":"Hangzhou，Zhejiang","postalCode":"310016","country":"CN","latitude":30.252625,"longitude":120.16508,"distance":8829.489417753091,"distanceUnit":"K","oclcNumber":"1222984055"},{"oclcSymbol":"U@L","registryId":65553,"institutionName":"University of Macau","institutionType":"ACADEMIC","street1":"Wu Yee Sun Library, University of Macau, E2","street2":"Avenida da Universidade, Taipa","city":"Macau","country":"CN","latitude":22.129786,"longitude":113.54599,"distance":9133.250593588788,"distanceUnit":"K","oclcNumber":"1222965071"},{"oclcSymbol":"CNZJL","registryId":37796,"institutionName":"Zhejiang Library","institutionType":"ACADEMIC","street1":"73 Shunguang Rd","city":"Hangzhou","postalCode":"310007","country":"CN","latitude":30.252625,"longitude":120.16508,"distance":8829.489417753091,"distanceUnit":"K","oclcNumber":"1178848488"},{"oclcSymbol":"EMU","registryId":699,"institutionName":"Emory University","institutionType":"ACADEMIC","alsoCalled":"Robert W. Woodruff Library (Woodruff Main Library)","street1":"Robert W. Woodruff Library","street2":"540 Asbury Circle, NE","city":"Atlanta","state":"US-GA","postalCode":"30322","country":"US","latitude":33.79044,"longitude":-84.32282,"distance":7393.571775966326,"distanceUnit":"K","oclcNumber":"1178827646"},{"oclcSymbol":"CNZJL","registryId":37796,"institutionName":"Zhejiang Library","institutionType":"ACADEMIC","street1":"73 Shunguang Rd","city":"Hangzhou","postalCode":"310007","country":"CN","latitude":30.252625,"longitude":120.16508,"distance":8829.489417753091,"distanceUnit":"K","oclcNumber":"1178827646"},{"oclcSymbol":"U@L","registryId":65553,"institutionName":"University of Macau","institutionType":"ACADEMIC","street1":"Wu Yee Sun Library, University of Macau, E2","street2":"Avenida da Universidade, Taipa","city":"Macau","country":"CN","latitude":22.129786,"longitude":113.54599,"distance":9133.250593588788,"distanceUnit":"K","oclcNumber":"1241105220"},{"oclcSymbol":"CCHGZ","registryId":112222,"institutionName":"Hangzhou Public Library","institutionType":"PUBLIC","alsoCalled":"杭州图书馆","street1":"No 58 Jiefangdonglu","city":"Hangzhou，Zhejiang","postalCode":"310016","country":"CN","latitude":30.252625,"longitude":120.16508,"distance":8829.489417753091,"distanceUnit":"K","oclcNumber":"1198141524"},{"oclcSymbol":"AUBRI","registryId":40237,"institutionName":"Brisbane City Council Library Services","institutionType":"PUBLIC","alsoCalled":"BCC","street1":"266 George Street","city":"Brisbane","state":"AU-QL","postalCode":"4000","country":"AU","latitude":-27.471134,"longitude":153.02243,"distance":16089.881720847356,"distanceUnit":"K","oclcNumber":"1198141524"},{"oclcSymbol":"ATVMO","registryId":98607,"institutionName":"Monash Public Library Service","institutionType":"PUBLIC","street1":"41 Miller Crescent","city":"Mt Waverley","state":"AU-VI","postalCode":"3149","country":"AU","latitude":-37.87471,"longitude":145.12718,"distance":16335.962530065828,"distanceUnit":"K","oclcNumber":"1198141524"},{"oclcSymbol":"NZAUC","registryId":58181,"institutionName":"Auckland Libraries","institutionType":"PUBLIC","street1":"Central City Library","street2":"44-46 Lorne Street","city":"Auckland","postalCode":"1010","country":"NZ","latitude":-36.851765,"longitude":174.76541,"distance":18166.661566410658,"distanceUnit":"K","oclcNumber":"1198141524"},{"oclcSymbol":"NZCPL","registryId":21495,"institutionName":"Christchurch City Libraries","institutionType":"PUBLIC","street1":"60 Cathedral Square","city":"Christchurch","postalCode":"8011","country":"NZ","latitude":-43.530132,"longitude":172.63716,"distance":18594.698764266243,"distanceUnit":"K","oclcNumber":"1198141524"},{"oclcSymbol":"U@L","registryId":65553,"institutionName":"University of Macau","institutionType":"ACADEMIC","street1":"Wu Yee Sun Library, University of Macau, E2","street2":"Avenida da Universidade, Taipa","city":"Macau","country":"CN","latitude":22.129786,"longitude":113.54599,"distance":9133.250593588788,"distanceUnit":"K","oclcNumber":"1159215837"},{"oclcSymbol":"LM1","registryId":53843,"institutionName":"Monash University Library","institutionType":"ACADEMIC","street1":"Wellington Road","city":"Clayton","state":"AU-VI","postalCode":"3800","country":"AU","latitude":-37.91313,"longitude":145.13454,"distance":16338.992153214094,"distanceUnit":"K","oclcNumber":"1159215837"},{"oclcSymbol":"CNZJL","registryId":37796,"institutionName":"Zhejiang Library","institutionType":"ACADEMIC","street1":"73 Shunguang Rd","city":"Hangzhou","postalCode":"310007","country":"CN","latitude":30.252625,"longitude":120.16508,"distance":8829.489417753091,"distanceUnit":"K","oclcNumber":"1196073922"},{"oclcSymbol":"UAB","registryId":65567,"institutionName":"University of Alberta","institutionType":"ACADEMIC","alsoCalled":"University of Alberta Library","street1":"5-02 Cameron Libr","city":"Edmonton","state":"CA-AB","postalCode":"T6G 2J8","country":"CA","latitude":53.526733,"longitude":-113.52361,"distance":7288.342749133143,"distanceUnit":"K","oclcNumber":"1194954105"},{"oclcSymbol":"LM1","registryId":53843,"institutionName":"Monash University Library","institutionType":"ACADEMIC","street1":"Wellington Road","city":"Clayton","state":"AU-VI","postalCode":"3800","country":"AU","latitude":-37.91313,"longitude":145.13454,"distance":16338.992153214094,"distanceUnit":"K","oclcNumber":"1194954105"},{"oclcSymbol":"EYM","registryId":5293,"institutionName":"University of Michigan","institutionType":"ACADEMIC","alsoCalled":"University of Michigan - Ann Arbor","street1":"818 Hatcher Graduate Library","street2":"913 S. University Avenue","city":"Ann Arbor","state":"US-MI","postalCode":"48109-1190","country":"US","latitude":42.2763,"longitude":-83.7382,"distance":6699.5468970135225,"distanceUnit":"K","oclcNumber":"1227915132"},{"oclcSymbol":"EYM","registryId":5293,"institutionName":"University of Michigan","institutionType":"ACADEMIC","alsoCalled":"University of Michigan - Ann Arbor","street1":"818 Hatcher Graduate Library","street2":"913 S. University Avenue","city":"Ann Arbor","state":"US-MI","postalCode":"48109-1190","country":"US","latitude":42.2763,"longitude":-83.7382,"distance":6699.5468970135225,"distanceUnit":"K","oclcNumber":"1139507073"},{"oclcSymbol":"ZQP","registryId":71949,"institutionName":"Queens Public Library","institutionType":"PUBLIC","alsoCalled":"Queens Library: Queens Borough Public Library","street1":"89-11 Merrick Boulevard","city":"Jamaica","state":"US-NY","postalCode":"11432","country":"US","latitude":40.707787,"longitude":-73.794716,"distance":6188.807886451222,"distanceUnit":"K","oclcNumber":"1243209919"},{"oclcSymbol":"CCHGZ","registryId":112222,"institutionName":"Hangzhou Public Library","institutionType":"PUBLIC","alsoCalled":"杭州图书馆","street1":"No 58 Jiefangdonglu","city":"Hangzhou，Zhejiang","postalCode":"310016","country":"CN","latitude":30.252625,"longitude":120.16508,"distance":8829.489417753091,"distanceUnit":"K","oclcNumber":"1243209919"},{"oclcSymbol":"AUBRI","registryId":40237,"institutionName":"Brisbane City Council Library Services","institutionType":"PUBLIC","alsoCalled":"BCC","street1":"266 George Street","city":"Brisbane","state":"AU-QL","postalCode":"4000","country":"AU","latitude":-27.471134,"longitude":153.02243,"distance":16089.881720847356,"distanceUnit":"K","oclcNumber":"1243209919"},{"oclcSymbol":"ATBOR","registryId":40096,"institutionName":"City of Boroondara Library Service","institutionType":"PUBLIC","street1":"Hawthorn Library","street2":"584 Glenferrie Road","city":"Hawthorn","postalCode":"3132","country":"AU","latitude":-37.825294,"longitude":145.03514,"distance":16326.19523681869,"distanceUnit":"K","oclcNumber":"1243209919"},{"oclcSymbol":"ATVWM","registryId":98474,"institutionName":"Whitehorse Manningham Regional Library Corporation","institutionType":"PUBLIC","street1":"379 Whitehorse Road","city":"Nunawading","state":"AU-VI","postalCode":"3131","country":"AU","latitude":-37.817432,"longitude":145.1816,"distance":16336.08598907892,"distanceUnit":"K","oclcNumber":"1243209919"},{"oclcSymbol":"NZAUC","registryId":58181,"institutionName":"Auckland Libraries","institutionType":"PUBLIC","street1":"Central City Library","street2":"44-46 Lorne Street","city":"Auckland","postalCode":"1010","country":"NZ","latitude":-36.851765,"longitude":174.76541,"distance":18166.661566410658,"distanceUnit":"K","oclcNumber":"1243209919"},{"oclcSymbol":"CNZJL","registryId":37796,"institutionName":"Zhejiang Library","institutionType":"ACADEMIC","street1":"73 Shunguang Rd","city":"Hangzhou","postalCode":"310007","country":"CN","latitude":30.252625,"longitude":120.16508,"distance":8829.489417753091,"distanceUnit":"K","oclcNumber":"1266131379"},{"oclcSymbol":"EYM","registryId":5293,"institutionName":"University of Michigan","institutionType":"ACADEMIC","alsoCalled":"University of Michigan - Ann Arbor","street1":"818 Hatcher Graduate Library","street2":"913 S. University Avenue","city":"Ann Arbor","state":"US-MI","postalCode":"48109-1190","country":"US","latitude":42.2763,"longitude":-83.7382,"distance":6699.5468970135225,"distanceUnit":"K","oclcNumber":"1329314014"},{"oclcSymbol":"ZQP","registryId":71949,"institutionName":"Queens Public Library","institutionType":"PUBLIC","alsoCalled":"Queens Library: Queens Borough Public Library","street1":"89-11 Merrick Boulevard","city":"Jamaica","state":"US-NY","postalCode":"11432","country":"US","latitude":40.707787,"longitude":-73.794716,"distance":6188.807886451222,"distanceUnit":"K","oclcNumber":"1141864985"},{"oclcSymbol":"NYP","registryId":58122,"institutionName":"New York Public Library System","institutionType":"PUBLIC","alsoCalled":"NYPL","street1":"Fifth Avenue at 42nd Street","city":"New York","state":"US-NY","postalCode":"10018-2788","country":"US","latitude":40.753498,"longitude":-73.98089,"distance":6197.636374105711,"distanceUnit":"K","oclcNumber":"1141864985"},{"oclcSymbol":"BKL","registryId":13437,"institutionName":"Brooklyn Public Library","institutionType":"PUBLIC","alsoCalled":"Central Library","street1":"10 Grand Army Plaza","city":"Brooklyn","state":"US-NY","postalCode":"11238","country":"US","latitude":40.6725,"longitude":-73.968124,"distance":6202.563161536748,"distanceUnit":"K","oclcNumber":"1141864985"},{"oclcSymbol":"CNZJL","registryId":37796,"institutionName":"Zhejiang Library","institutionType":"ACADEMIC","street1":"73 Shunguang Rd","city":"Hangzhou","postalCode":"310007","country":"CN","latitude":30.252625,"longitude":120.16508,"distance":8829.489417753091,"distanceUnit":"K","oclcNumber":"1141864985"},{"oclcSymbol":"CCHGZ","registryId":112222,"institutionName":"Hangzhou Public Library","institutionType":"PUBLIC","alsoCalled":"杭州图书馆","street1":"No 58 Jiefangdonglu","city":"Hangzhou，Zhejiang","postalCode":"310016","country":"CN","latitude":30.252625,"longitude":120.16508,"distance":8829.489417753091,"distanceUnit":"K","oclcNumber":"1200845021"},{"oclcSymbol":"ZQP","registryId":71949,"institutionName":"Queens Public Library","institutionType":"PUBLIC","alsoCalled":"Queens Library: Queens Borough Public Library","street1":"89-11 Merrick Boulevard","city":"Jamaica","state":"US-NY","postalCode":"11432","country":"US","latitude":40.707787,"longitude":-73.794716,"distance":6188.807886451222,"distanceUnit":"K","oclcNumber":"1156657196"},{"oclcSymbol":"UAB","registryId":65567,"institutionName":"University of Alberta","institutionType":"ACADEMIC","alsoCalled":"University of Alberta Library","street1":"5-02 Cameron Libr","city":"Edmonton","state":"CA-AB","postalCode":"T6G 2J8","country":"CA","latitude":53.526733,"longitude":-113.52361,"distance":7288.342749133143,"distanceUnit":"K","oclcNumber":"1163787183"},{"oclcSymbol":"LM1","registryId":53843,"institutionName":"Monash University Library","institutionType":"ACADEMIC","street1":"Wellington Road","city":"Clayton","state":"AU-VI","postalCode":"3800","country":"AU","latitude":-37.91313,"longitude":145.13454,"distance":16338.992153214094,"distanceUnit":"K","oclcNumber":"1163787183"},{"oclcSymbol":"NDD","registryId":2106,"institutionName":"Duke University Libraries","institutionType":"ACADEMIC","alsoCalled":"Duke University Library; Perkins Library","street1":"411 Chapel Drive","street2":"PO Box 90188","city":"Durham","state":"US-NC","postalCode":"27708","country":"US","latitude":36.00183,"longitude":-78.93905,"distance":6871.28474713783,"distanceUnit":"K","oclcNumber":"1265974118"},{"oclcSymbol":"DLC","registryId":45266,"institutionName":"Library of Congress","institutionType":"REGIONAL_OR_NATIONAL","street1":"101 Independence Avenue, SE","city":"Washington","state":"US-DC","postalCode":"20540","country":"US","latitude":38.88863,"longitude":-77.00475,"distance":6528.602785373047,"distanceUnit":"K","oclcNumber":"1344332374"},{"oclcSymbol":"CNZJL","registryId":37796,"institutionName":"Zhejiang Library","institutionType":"ACADEMIC","street1":"73 Shunguang Rd","city":"Hangzhou","postalCode":"310007","country":"CN","latitude":30.252625,"longitude":120.16508,"distance":8829.489417753091,"distanceUnit":"K","oclcNumber":"1344332374"},{"oclcSymbol":"CGU","registryId":110147,"institutionName":"University of Chicago Library","institutionType":"ACADEMIC","street1":"1100 E. 57th Street","city":"Chicago","state":"US-IL","postalCode":"60637","country":"US","latitude":41.792255,"longitude":-87.599976,"distance":6968.537876102337,"distanceUnit":"K","oclcNumber":"1241214087"},{"oclcSymbol":"CCHGZ","registryId":112222,"institutionName":"Hangzhou Public Library","institutionType":"PUBLIC","alsoCalled":"杭州图书馆","street1":"No 58 Jiefangdonglu","city":"Hangzhou，Zhejiang","postalCode":"310016","country":"CN","latitude":30.252625,"longitude":120.16508,"distance":8829.489417753091,"distanceUnit":"K","oclcNumber":"1241214087"},{"oclcSymbol":"CNZJL","registryId":37796,"institutionName":"Zhejiang Library","institutionType":"ACADEMIC","street1":"73 Shunguang Rd","city":"Hangzhou","postalCode":"310007","country":"CN","latitude":30.252625,"longitude":120.16508,"distance":8829.489417753091,"distanceUnit":"K","oclcNumber":"1130359264"},{"oclcSymbol":"CCHGZ","registryId":112222,"institutionName":"Hangzhou Public Library","institutionType":"PUBLIC","alsoCalled":"杭州图书馆","street1":"No 58 Jiefangdonglu","city":"Hangzhou，Zhejiang","postalCode":"310016","country":"CN","latitude":30.252625,"longitude":120.16508,"distance":8829.489417753091,"distanceUnit":"K","oclcNumber":"1130359264"},{"oclcSymbol":"CCHGZ","registryId":112222,"institutionName":"Hangzhou Public Library","institutionType":"PUBLIC","alsoCalled":"杭州图书馆","street1":"No 58 Jiefangdonglu","city":"Hangzhou，Zhejiang","postalCode":"310016","country":"CN","latitude":30.252625,"longitude":120.16508,"distance":8829.489417753091,"distanceUnit":"K","oclcNumber":"1198156802"},{"oclcSymbol":"NYP","registryId":58122,"institutionName":"New York Public Library System","institutionType":"PUBLIC","alsoCalled":"NYPL","street1":"Fifth Avenue at 42nd Street","city":"New York","state":"US-NY","postalCode":"10018-2788","country":"US","latitude":40.753498,"longitude":-73.98089,"distance":6197.636374105711,"distanceUnit":"K","oclcNumber":"1130342655"},{"oclcSymbol":"BKL","registryId":13437,"institutionName":"Brooklyn Public Library","institutionType":"PUBLIC","alsoCalled":"Central Library","street1":"10 Grand Army Plaza","city":"Brooklyn","state":"US-NY","postalCode":"11238","country":"US","latitude":40.6725,"longitude":-73.968124,"distance":6202.563161536748,"distanceUnit":"K","oclcNumber":"1130342655"},{"oclcSymbol":"CCHGZ","registryId":112222,"institutionName":"Hangzhou Public Library","institutionType":"PUBLIC","alsoCalled":"杭州图书馆","street1":"No 58 Jiefangdonglu","city":"Hangzhou，Zhejiang","postalCode":"310016","country":"CN","latitude":30.252625,"longitude":120.16508,"distance":8829.489417753091,"distanceUnit":"K","oclcNumber":"1130342655"},{"oclcSymbol":"SINLB","registryId":63464,"institutionName":"National Library Board, Singapore","institutionType":"REGIONAL_OR_NATIONAL","street1":"National Library Board,","street2":"100 Victoria Street, #14-01, National Library Building","city":"Singapore","postalCode":"188064","country":"SG","latitude":1.297366,"longitude":103.85384,"distance":10264.410371761638,"distanceUnit":"K","oclcNumber":"1130342655"},{"oclcSymbol":"NYP","registryId":58122,"institutionName":"New York Public Library System","institutionType":"PUBLIC","alsoCalled":"NYPL","street1":"Fifth Avenue at 42nd Street","city":"New York","state":"US-NY","postalCode":"10018-2788","country":"US","latitude":40.753498,"longitude":-73.98089,"distance":6197.636374105711,"distanceUnit":"K","oclcNumber":"1130339154"},{"oclcSymbol":"BKL","registryId":13437,"institutionName":"Brooklyn Public Library","institutionType":"PUBLIC","alsoCalled":"Central Library","street1":"10 Grand Army Plaza","city":"Brooklyn","state":"US-NY","postalCode":"11238","country":"US","latitude":40.6725,"longitude":-73.968124,"distance":6202.563161536748,"distanceUnit":"K","oclcNumber":"1130339154"},{"oclcSymbol":"NTG","registryId":57853,"institutionName":"King County Library System","institutionType":"PUBLIC","alsoCalled":"Service Center, Administrative Offices","street1":"960 Newport Way NW","city":"Issaquah","state":"US-WA","postalCode":"98027","country":"US","latitude":47.54032,"longitude":-122.05029,"distance":8174.717026941226,"distanceUnit":"K","oclcNumber":"1130339154"},{"oclcSymbol":"CCHGZ","registryId":112222,"institutionName":"Hangzhou Public Library","institutionType":"PUBLIC","alsoCalled":"杭州图书馆","street1":"No 58 Jiefangdonglu","city":"Hangzhou，Zhejiang","postalCode":"310016","country":"CN","latitude":30.252625,"longitude":120.16508,"distance":8829.489417753091,"distanceUnit":"K","oclcNumber":"1130339154"},{"oclcSymbol":"SINLB","registryId":63464,"institutionName":"National Library Board, Singapore","institutionType":"REGIONAL_OR_NATIONAL","street1":"National Library Board,","street2":"100 Victoria Street, #14-01, National Library Building","city":"Singapore","postalCode":"188064","country":"SG","latitude":1.297366,"longitude":103.85384,"distance":10264.410371761638,"distanceUnit":"K","oclcNumber":"1130339154"},{"oclcSymbol":"NYP","registryId":58122,"institutionName":"New York Public Library System","institutionType":"PUBLIC","alsoCalled":"NYPL","street1":"Fifth Avenue at 42nd Street","city":"New York","state":"US-NY","postalCode":"10018-2788","country":"US","latitude":40.753498,"longitude":-73.98089,"distance":6197.636374105711,"distanceUnit":"K","oclcNumber":"1130350606"},{"oclcSymbol":"BKL","registryId":13437,"institutionName":"Brooklyn Public Library","institutionType":"PUBLIC","alsoCalled":"Central Library","street1":"10 Grand Army Plaza","city":"Brooklyn","state":"US-NY","postalCode":"11238","country":"US","latitude":40.6725,"longitude":-73.968124,"distance":6202.563161536748,"distanceUnit":"K","oclcNumber":"1130350606"},{"oclcSymbol":"CCHGZ","registryId":112222,"institutionName":"Hangzhou Public Library","institutionType":"PUBLIC","alsoCalled":"杭州图书馆","street1":"No 58 Jiefangdonglu","city":"Hangzhou，Zhejiang","postalCode":"310016","country":"CN","latitude":30.252625,"longitude":120.16508,"distance":8829.489417753091,"distanceUnit":"K","oclcNumber":"1130350606"},{"oclcSymbol":"SINLB","registryId":63464,"institutionName":"National Library Board, Singapore","institutionType":"REGIONAL_OR_NATIONAL","street1":"National Library Board,","street2":"100 Victoria Street, #14-01, National Library Building","city":"Singapore","postalCode":"188064","country":"SG","latitude":1.297366,"longitude":103.85384,"distance":10264.410371761638,"distanceUnit":"K","oclcNumber":"1130350606"},{"oclcSymbol":"CCHGZ","registryId":112222,"institutionName":"Hangzhou Public Library","institutionType":"PUBLIC","alsoCalled":"杭州图书馆","street1":"No 58 Jiefangdonglu","city":"Hangzhou，Zhejiang","postalCode":"310016","country":"CN","latitude":30.252625,"longitude":120.16508,"distance":8829.489417753091,"distanceUnit":"K","oclcNumber":"1198133217"},{"oclcSymbol":"AUBRI","registryId":40237,"institutionName":"Brisbane City Council Library Services","institutionType":"PUBLIC","alsoCalled":"BCC","street1":"266 George Street","city":"Brisbane","state":"AU-QL","postalCode":"4000","country":"AU","latitude":-27.471134,"longitude":153.02243,"distance":16089.881720847356,"distanceUnit":"K","oclcNumber":"1198133217"},{"oclcSymbol":"ATVMO","registryId":98607,"institutionName":"Monash Public Library Service","institutionType":"PUBLIC","street1":"41 Miller Crescent","city":"Mt Waverley","state":"AU-VI","postalCode":"3149","country":"AU","latitude":-37.87471,"longitude":145.12718,"distance":16335.962530065828,"distanceUnit":"K","oclcNumber":"1198133217"},{"oclcSymbol":"NZAUC","registryId":58181,"institutionName":"Auckland Libraries","institutionType":"PUBLIC","street1":"Central City Library","street2":"44-46 Lorne Street","city":"Auckland","postalCode":"1010","country":"NZ","latitude":-36.851765,"longitude":174.76541,"distance":18166.661566410658,"distanceUnit":"K","oclcNumber":"1198133217"},{"oclcSymbol":"NZCPL","registryId":21495,"institutionName":"Christchurch City Libraries","institutionType":"PUBLIC","street1":"60 Cathedral Square","city":"Christchurch","postalCode":"8011","country":"NZ","latitude":-43.530132,"longitude":172.63716,"distance":18594.698764266243,"distanceUnit":"K","oclcNumber":"1198133217"},{"oclcSymbol":"CCHGZ","registryId":112222,"institutionName":"Hangzhou Public Library","institutionType":"PUBLIC","alsoCalled":"杭州图书馆","street1":"No 58 Jiefangdonglu","city":"Hangzhou，Zhejiang","postalCode":"310016","country":"CN","latitude":30.252625,"longitude":120.16508,"distance":8829.489417753091,"distanceUnit":"K","oclcNumber":"1130350453"},{"oclcSymbol":"SINLB","registryId":63464,"institutionName":"National Library Board, Singapore","institutionType":"REGIONAL_OR_NATIONAL","street1":"National Library Board,","street2":"100 Victoria Street, #14-01, National Library Building","city":"Singapore","postalCode":"188064","country":"SG","latitude":1.297366,"longitude":103.85384,"distance":10264.410371761638,"distanceUnit":"K","oclcNumber":"1130350453"},{"oclcSymbol":"NYP","registryId":58122,"institutionName":"New York Public Library System","institutionType":"PUBLIC","alsoCalled":"NYPL","street1":"Fifth Avenue at 42nd Street","city":"New York","state":"US-NY","postalCode":"10018-2788","country":"US","latitude":40.753498,"longitude":-73.98089,"distance":6197.636374105711,"distanceUnit":"K","oclcNumber":"1130347649"},{"oclcSymbol":"BKL","registryId":13437,"institutionName":"Brooklyn Public Library","institutionType":"PUBLIC","alsoCalled":"Central Library","street1":"10 Grand Army Plaza","city":"Brooklyn","state":"US-NY","postalCode":"11238","country":"US","latitude":40.6725,"longitude":-73.968124,"distance":6202.563161536748,"distanceUnit":"K","oclcNumber":"1130347649"},{"oclcSymbol":"CCHGZ","registryId":112222,"institutionName":"Hangzhou Public Library","institutionType":"PUBLIC","alsoCalled":"杭州图书馆","street1":"No 58 Jiefangdonglu","city":"Hangzhou，Zhejiang","postalCode":"310016","country":"CN","latitude":30.252625,"longitude":120.16508,"distance":8829.489417753091,"distanceUnit":"K","oclcNumber":"1130347649"},{"oclcSymbol":"SINLB","registryId":63464,"institutionName":"National Library Board, Singapore","institutionType":"REGIONAL_OR_NATIONAL","street1":"National Library Board,","street2":"100 Victoria Street, #14-01, National Library Building","city":"Singapore","postalCode":"188064","country":"SG","latitude":1.297366,"longitude":103.85384,"distance":10264.410371761638,"distanceUnit":"K","oclcNumber":"1130347649"},{"oclcSymbol":"CCHGZ","registryId":112222,"institutionName":"Hangzhou Public Library","institutionType":"PUBLIC","alsoCalled":"杭州图书馆","street1":"No 58 Jiefangdonglu","city":"Hangzhou，Zhejiang","postalCode":"310016","country":"CN","latitude":30.252625,"longitude":120.16508,"distance":8829.489417753091,"distanceUnit":"K","oclcNumber":"1222996079"},{"oclcSymbol":"CCHGZ","registryId":112222,"institutionName":"Hangzhou Public Library","institutionType":"PUBLIC","alsoCalled":"杭州图书馆","street1":"No 58 Jiefangdonglu","city":"Hangzhou，Zhejiang","postalCode":"310016","country":"CN","latitude":30.252625,"longitude":120.16508,"distance":8829.489417753091,"distanceUnit":"K","oclcNumber":"1200844510"},{"oclcSymbol":"THHCU","registryId":215990,"institutionName":"Huachiew Chalermprakiet University","institutionType":"ACADEMIC","alsoCalled":"HCU","street1":"18/18 Bang Na-Trat Frontage Rd Tambon Bang Chalong, Amphoe Bang Phli","city":"Chang Wat Samut Prakan","postalCode":"10540","country":"TH","latitude":13.614647,"longitude":100.75916,"distance":8995.801220925305,"distanceUnit":"K","oclcNumber":"1412145186"},{"oclcSymbol":"CCHGZ","registryId":112222,"institutionName":"Hangzhou Public Library","institutionType":"PUBLIC","alsoCalled":"杭州图书馆","street1":"No 58 Jiefangdonglu","city":"Hangzhou，Zhejiang","postalCode":"310016","country":"CN","latitude":30.252625,"longitude":120.16508,"distance":8829.489417753091,"distanceUnit":"K","oclcNumber":"1198134898"},{"oclcSymbol":"AUT","registryId":40260,"institutionName":"National Library of Australia","institutionType":"REGIONAL_OR_NATIONAL","street1":"Parkes Place","city":"Canberra","state":"AU-CT","postalCode":"2600","country":"AU","latitude":-35.29652,"longitude":149.12935,"distance":16442.15007078913,"distanceUnit":"K","oclcNumber":"1282882804"},{"oclcSymbol":"HUL","registryId":73876,"institutionName":"Harvard University","institutionType":"ACADEMIC","alsoCalled":"Harvard Library","street1":"Harvard University","city":"Cambridge","state":"US-MA","postalCode":"02138","country":"US","latitude":42.379486,"longitude":-71.11653,"distance":5898.670972048441,"distanceUnit":"K","oclcNumber":"1126792320"},{"oclcSymbol":"ZCU","registryId":4861,"institutionName":"Columbia University in the City of New York","institutionType":"ACADEMIC","alsoCalled":"Columbia University Libraries","street1":"535 West 114th Street","city":"New York","state":"US-NY","postalCode":"10027-7035","country":"US","latitude":40.806236,"longitude":-73.96326,"distance":6192.750022328971,"distanceUnit":"K","oclcNumber":"1126792320"},{"oclcSymbol":"CUY","registryId":5689,"institutionName":"UC Berkeley Libraries","institutionType":"ACADEMIC","street1":"133 Doe Library","street2":"University of California","city":"Berkeley","state":"US-CA","postalCode":"94720-6000","country":"US","latitude":37.87575,"longitude":-122.24341,"distance":9115.023971148703,"distanceUnit":"K","oclcNumber":"1126792320"},{"oclcSymbol":"STF","registryId":3227,"institutionName":"Stanford University Libraries","institutionType":"ACADEMIC","street1":"Green Library","street2":"Arguello Way","city":"Stanford","state":"US-CA","postalCode":"94305-6004","country":"US","latitude":37.43137,"longitude":-122.16892,"distance":9154.907042870153,"distanceUnit":"K","oclcNumber":"1126792320"},{"oclcSymbol":"CLU","registryId":207,"institutionName":"University of California, Los Angeles","institutionType":"ACADEMIC","street1":"280 Charles E. Young Dr.","city":"Los Angeles","state":"US-CA","postalCode":"90255","country":"US","latitude":34.07501,"longitude":-118.441185,"distance":9308.793889187069,"distanceUnit":"K","oclcNumber":"1126792320"},{"oclcSymbol":"NYP","registryId":58122,"institutionName":"New York Public Library System","institutionType":"PUBLIC","alsoCalled":"NYPL","street1":"Fifth Avenue at 42nd Street","city":"New York","state":"US-NY","postalCode":"10018-2788","country":"US","latitude":40.753498,"longitude":-73.98089,"distance":6197.636374105711,"distanceUnit":"K","oclcNumber":"1262136604"},{"oclcSymbol":"UAB","registryId":65567,"institutionName":"University of Alberta","institutionType":"ACADEMIC","alsoCalled":"University of Alberta Library","street1":"5-02 Cameron Libr","city":"Edmonton","state":"CA-AB","postalCode":"T6G 2J8","country":"CA","latitude":53.526733,"longitude":-113.52361,"distance":7288.342749133143,"distanceUnit":"K","oclcNumber":"1262136604"},{"oclcSymbol":"LM1","registryId":53843,"institutionName":"Monash University Library","institutionType":"ACADEMIC","street1":"Wellington Road","city":"Clayton","state":"AU-VI","postalCode":"3800","country":"AU","latitude":-37.91313,"longitude":145.13454,"distance":16338.992153214094,"distanceUnit":"K","oclcNumber":"1262136604"},{"oclcSymbol":"GZM","registryId":91572,"institutionName":"University of Wisconsin - Madison General Library System","institutionType":"ACADEMIC","street1":"Memorial Library","street2":"728 State Street","city":"Madison","state":"US-WI","postalCode":"53706","country":"US","latitude":43.075436,"longitude":-89.397865,"distance":6974.53449098745,"distanceUnit":"K","oclcNumber":"1287030901"},{"oclcSymbol":"CVU","registryId":87775,"institutionName":"The Chinese University of Hong Kong","institutionType":"ACADEMIC","street1":"CUHK Library","city":"Shatin, N.T.,","country":"HK","latitude":22.419537,"longitude":114.20506,"distance":9150.441171752705,"distanceUnit":"K","oclcNumber":"1287030901"},{"oclcSymbol":"U@L","registryId":65553,"institutionName":"University of Macau","institutionType":"ACADEMIC","street1":"Wu Yee Sun Library, University of Macau, E2","street2":"Avenida da Universidade, Taipa","city":"Macau","country":"CN","latitude":22.129786,"longitude":113.54599,"distance":9133.250593588788,"distanceUnit":"K","oclcNumber":"1243333829"},{"oclcSymbol":"CCHGZ","registryId":112222,"institutionName":"Hangzhou Public Library","institutionType":"PUBLIC","alsoCalled":"杭州图书馆","street1":"No 58 Jiefangdonglu","city":"Hangzhou，Zhejiang","postalCode":"310016","country":"CN","latitude":30.252625,"longitude":120.16508,"distance":8829.489417753091,"distanceUnit":"K","oclcNumber":"1243208642"},{"oclcSymbol":"CNZJL","registryId":37796,"institutionName":"Zhejiang Library","institutionType":"ACADEMIC","street1":"73 Shunguang Rd","city":"Hangzhou","postalCode":"310007","country":"CN","latitude":30.252625,"longitude":120.16508,"distance":8829.489417753091,"distanceUnit":"K","oclcNumber":"1282985859"},{"oclcSymbol":"CNZJL","registryId":37796,"institutionName":"Zhejiang Library","institutionType":"ACADEMIC","street1":"73 Shunguang Rd","city":"Hangzhou","postalCode":"310007","country":"CN","latitude":30.252625,"longitude":120.16508,"distance":8829.489417753091,"distanceUnit":"K","oclcNumber":"1204227287"},{"oclcSymbol":"LM1","registryId":53843,"institutionName":"Monash University Library","institutionType":"ACADEMIC","street1":"Wellington Road","city":"Clayton","state":"AU-VI","postalCode":"3800","country":"AU","latitude":-37.91313,"longitude":145.13454,"distance":16338.992153214094,"distanceUnit":"K","oclcNumber":"1204227287"},{"oclcSymbol":"WAU","registryId":5725,"institutionName":"University of Washington Libraries","institutionType":"ACADEMIC","street1":"Box 352900","city":"Seattle","state":"US-WA","postalCode":"98195-2900","country":"US","latitude":47.65368,"longitude":-122.29911,"distance":8173.278736712033,"distanceUnit":"K","oclcNumber":"1348700680"},{"oclcSymbol":"CCHGZ","registryId":112222,"institutionName":"Hangzhou Public Library","institutionType":"PUBLIC","alsoCalled":"杭州图书馆","street1":"No 58 Jiefangdonglu","city":"Hangzhou，Zhejiang","postalCode":"310016","country":"CN","latitude":30.252625,"longitude":120.16508,"distance":8829.489417753091,"distanceUnit":"K","oclcNumber":"1348700680"},{"oclcSymbol":"ZCU","registryId":4861,"institutionName":"Columbia University in the City of New York","institutionType":"ACADEMIC","alsoCalled":"Columbia University Libraries","street1":"535 West 114th Street","city":"New York","state":"US-NY","postalCode":"10027-7035","country":"US","latitude":40.806236,"longitude":-73.96326,"distance":6192.750022328971,"distanceUnit":"K","oclcNumber":"1192494151"},{"oclcSymbol":"ZYU","registryId":1976,"institutionName":"New York University","institutionType":"ACADEMIC","alsoCalled":"Elmer Holmes Bobst Library","street1":"70 Washington Square South","city":"New York","state":"US-NY","postalCode":"10012","country":"US","latitude":40.729427,"longitude":-73.99722,"distance":6200.4045332524265,"distanceUnit":"K","oclcNumber":"1192494151"},{"oclcSymbol":"PAU","registryId":2583,"institutionName":"University of Pennsylvania Libraries","institutionType":"ACADEMIC","alsoCalled":"Penn Libraries","street1":"Library","street2":"3420 Walnut St","city":"Philadelphia","state":"US-PA","postalCode":"19104-6206","country":"US","latitude":39.952724,"longitude":-75.194,"distance":6333.612472191301,"distanceUnit":"K","oclcNumber":"1192494151"},{"oclcSymbol":"DLC","registryId":45266,"institutionName":"Library of Congress","institutionType":"REGIONAL_OR_NATIONAL","street1":"101 Independence Avenue, SE","city":"Washington","state":"US-DC","postalCode":"20540","country":"US","latitude":38.88863,"longitude":-77.00475,"distance":6528.602785373047,"distanceUnit":"K","oclcNumber":"1192494151"},{"oclcSymbol":"GZM","registryId":91572,"institutionName":"University of Wisconsin - Madison General Library System","institutionType":"ACADEMIC","street1":"Memorial Library","street2":"728 State Street","city":"Madison","state":"US-WI","postalCode":"53706","country":"US","latitude":43.075436,"longitude":-89.397865,"distance":6974.53449098745,"distanceUnit":"K","oclcNumber":"1192494151"},{"oclcSymbol":"ZAS","registryId":5620,"institutionName":"University of California Los Angeles","institutionType":"ACADEMIC","alsoCalled":"Southern Regional Library Facility","street1":"Southern Regional Libr Fac","street2":"305 de Neve Drive, Box 951388","city":"Los Angeles","state":"US-CA","postalCode":"90095-1388","country":"US","latitude":34.05678,"longitude":-118.24259,"distance":9301.110233238789,"distanceUnit":"K","oclcNumber":"1192494151"},{"oclcSymbol":"CLU","registryId":207,"institutionName":"University of California, Los Angeles","institutionType":"ACADEMIC","street1":"280 Charles E. Young Dr.","city":"Los Angeles","state":"US-CA","postalCode":"90255","country":"US","latitude":34.07501,"longitude":-118.441185,"distance":9308.793889187069,"distanceUnit":"K","oclcNumber":"1192494151"},{"oclcSymbol":"NYP","registryId":58122,"institutionName":"New York Public Library System","institutionType":"PUBLIC","alsoCalled":"NYPL","street1":"Fifth Avenue at 42nd Street","city":"New York","state":"US-NY","postalCode":"10018-2788","country":"US","latitude":40.753498,"longitude":-73.98089,"distance":6197.636374105711,"distanceUnit":"K","oclcNumber":"1193569653"},{"oclcSymbol":"CGU","registryId":110147,"institutionName":"University of Chicago Library","institutionType":"ACADEMIC","street1":"1100 E. 57th Street","city":"Chicago","state":"US-IL","postalCode":"60637","country":"US","latitude":41.792255,"longitude":-87.599976,"distance":6968.537876102337,"distanceUnit":"K","oclcNumber":"1193569653"},{"oclcSymbol":"UAB","registryId":65567,"institutionName":"University of Alberta","institutionType":"ACADEMIC","alsoCalled":"University of Alberta Library","street1":"5-02 Cameron Libr","city":"Edmonton","state":"CA-AB","postalCode":"T6G 2J8","country":"CA","latitude":53.526733,"longitude":-113.52361,"distance":7288.342749133143,"distanceUnit":"K","oclcNumber":"1193569653"},{"oclcSymbol":"EMU","registryId":699,"institutionName":"Emory University","institutionType":"ACADEMIC","alsoCalled":"Robert W. Woodruff Library (Woodruff Main Library)","street1":"Robert W. Woodruff Library","street2":"540 Asbury Circle, NE","city":"Atlanta","state":"US-GA","postalCode":"30322","country":"US","latitude":33.79044,"longitude":-84.32282,"distance":7393.571775966326,"distanceUnit":"K","oclcNumber":"1193569653"},{"oclcSymbol":"LM1","registryId":53843,"institutionName":"Monash University Library","institutionType":"ACADEMIC","street1":"Wellington Road","city":"Clayton","state":"AU-VI","postalCode":"3800","country":"AU","latitude":-37.91313,"longitude":145.13454,"distance":16338.992153214094,"distanceUnit":"K","oclcNumber":"1193569653"},{"oclcSymbol":"U@L","registryId":65553,"institutionName":"University of Macau","institutionType":"ACADEMIC","street1":"Wu Yee Sun Library, University of Macau, E2","street2":"Avenida da Universidade, Taipa","city":"Macau","country":"CN","latitude":22.129786,"longitude":113.54599,"distance":9133.250593588788,"distanceUnit":"K","oclcNumber":"1244182866"},{"oclcSymbol":"NYP","registryId":58122,"institutionName":"New York Public Library System","institutionType":"PUBLIC","alsoCalled":"NYPL","street1":"Fifth Avenue at 42nd Street","city":"New York","state":"US-NY","postalCode":"10018-2788","country":"US","latitude":40.753498,"longitude":-73.98089,"distance":6197.636374105711,"distanceUnit":"K","oclcNumber":"1150937643"},{"oclcSymbol":"UAB","registryId":65567,"institutionName":"University of Alberta","institutionType":"ACADEMIC","alsoCalled":"University of Alberta Library","street1":"5-02 Cameron Libr","city":"Edmonton","state":"CA-AB","postalCode":"T6G 2J8","country":"CA","latitude":53.526733,"longitude":-113.52361,"distance":7288.342749133143,"distanceUnit":"K","oclcNumber":"1150937643"},{"oclcSymbol":"LM1","registryId":53843,"institutionName":"Monash University Library","institutionType":"ACADEMIC","street1":"Wellington Road","city":"Clayton","state":"AU-VI","postalCode":"3800","country":"AU","latitude":-37.91313,"longitude":145.13454,"distance":16338.992153214094,"distanceUnit":"K","oclcNumber":"1150937643"},{"oclcSymbol":"DLC","registryId":45266,"institutionName":"Library of Congress","institutionType":"REGIONAL_OR_NATIONAL","street1":"101 Independence Avenue, SE","city":"Washington","state":"US-DC","postalCode":"20540","country":"US","latitude":38.88863,"longitude":-77.00475,"distance":6528.602785373047,"distanceUnit":"K","oclcNumber":"1250464918"},{"oclcSymbol":"CGU","registryId":110147,"institutionName":"University of Chicago Library","institutionType":"ACADEMIC","street1":"1100 E. 57th Street","city":"Chicago","state":"US-IL","postalCode":"60637","country":"US","latitude":41.792255,"longitude":-87.599976,"distance":6968.537876102337,"distanceUnit":"K","oclcNumber":"1250464918"},{"oclcSymbol":"CNZJL","registryId":37796,"institutionName":"Zhejiang Library","institutionType":"ACADEMIC","street1":"73 Shunguang Rd","city":"Hangzhou","postalCode":"310007","country":"CN","latitude":30.252625,"longitude":120.16508,"distance":8829.489417753091,"distanceUnit":"K","oclcNumber":"1250464918"},{"oclcSymbol":"ZAS","registryId":5620,"institutionName":"University of California Los Angeles","institutionType":"ACADEMIC","alsoCalled":"Southern Regional Library Facility","street1":"Southern Regional Libr Fac","street2":"305 de Neve Drive, Box 951388","city":"Los Angeles","state":"US-CA","postalCode":"90095-1388","country":"US","latitude":34.05678,"longitude":-118.24259,"distance":9301.110233238789,"distanceUnit":"K","oclcNumber":"1250464918"},{"oclcSymbol":"CLU","registryId":207,"institutionName":"University of California, Los Angeles","institutionType":"ACADEMIC","street1":"280 Charles E. Young Dr.","city":"Los Angeles","state":"US-CA","postalCode":"90255","country":"US","latitude":34.07501,"longitude":-118.441185,"distance":9308.793889187069,"distanceUnit":"K","oclcNumber":"1250464918"},{"oclcSymbol":"AR9","registryId":15554,"institutionName":"Arlington Public Library","institutionType":"PUBLIC","alsoCalled":"Library Administration","street1":"101 West Abram Street","city":"Arlington","state":"US-TX","postalCode":"76004-3231","country":"US","latitude":32.736034,"longitude":-97.107735,"distance":8277.336771236267,"distanceUnit":"K","oclcNumber":"1296100152"},{"oclcSymbol":"AR9","registryId":15554,"institutionName":"Arlington Public Library","institutionType":"PUBLIC","alsoCalled":"Library Administration","street1":"101 West Abram Street","city":"Arlington","state":"US-TX","postalCode":"76004-3231","country":"US","latitude":32.736034,"longitude":-97.107735,"distance":8277.336771236267,"distanceUnit":"K","oclcNumber":"1296099738"},{"oclcSymbol":"AR9","registryId":15554,"institutionName":"Arlington Public Library","institutionType":"PUBLIC","alsoCalled":"Library Administration","street1":"101 West Abram Street","city":"Arlington","state":"US-TX","postalCode":"76004-3231","country":"US","latitude":32.736034,"longitude":-97.107735,"distance":8277.336771236267,"distanceUnit":"K","oclcNumber":"1296099837"},{"oclcSymbol":"AR9","registryId":15554,"institutionName":"Arlington Public Library","institutionType":"PUBLIC","alsoCalled":"Library Administration","street1":"101 West Abram Street","city":"Arlington","state":"US-TX","postalCode":"76004-3231","country":"US","latitude":32.736034,"longitude":-97.107735,"distance":8277.336771236267,"distanceUnit":"K","oclcNumber":"1296099696"},{"oclcSymbol":"AR9","registryId":15554,"institutionName":"Arlington Public Library","institutionType":"PUBLIC","alsoCalled":"Library Administration","street1":"101 West Abram Street","city":"Arlington","state":"US-TX","postalCode":"76004-3231","country":"US","latitude":32.736034,"longitude":-97.107735,"distance":8277.336771236267,"distanceUnit":"K","oclcNumber":"1296099941"},{"oclcSymbol":"CCHGZ","registryId":112222,"institutionName":"Hangzhou Public Library","institutionType":"PUBLIC","alsoCalled":"杭州图书馆","street1":"No 58 Jiefangdonglu","city":"Hangzhou，Zhejiang","postalCode":"310016","country":"CN","latitude":30.252625,"longitude":120.16508,"distance":8829.489417753091,"distanceUnit":"K","oclcNumber":"1261697412"},{"oclcSymbol":"U@L","registryId":65553,"institutionName":"University of Macau","institutionType":"ACADEMIC","street1":"Wu Yee Sun Library, University of Macau, E2","street2":"Avenida da Universidade, Taipa","city":"Macau","country":"CN","latitude":22.129786,"longitude":113.54599,"distance":9133.250593588788,"distanceUnit":"K","oclcNumber":"1261697412"},{"oclcSymbol":"U@L","registryId":65553,"institutionName":"University of Macau","institutionType":"ACADEMIC","street1":"Wu Yee Sun Library, University of Macau, E2","street2":"Avenida da Universidade, Taipa","city":"Macau","country":"CN","latitude":22.129786,"longitude":113.54599,"distance":9133.250593588788,"distanceUnit":"K","oclcNumber":"1261697398"},{"oclcSymbol":"JRY","registryId":6574,"institutionName":"Santa Clara County Library District","institutionType":"PUBLIC","street1":"1370 Dell Avenue","city":"Campbell","state":"US-CA","postalCode":"95008","country":"US","latitude":37.266163,"longitude":-121.95376,"distance":9161.597393508158,"distanceUnit":"K","oclcNumber":"1232118873"},{"oclcSymbol":"UAB","registryId":65567,"institutionName":"University of Alberta","institutionType":"ACADEMIC","alsoCalled":"University of Alberta Library","street1":"5-02 Cameron Libr","city":"Edmonton","state":"CA-AB","postalCode":"T6G 2J8","country":"CA","latitude":53.526733,"longitude":-113.52361,"distance":7288.342749133143,"distanceUnit":"K","oclcNumber":"1206430488"},{"oclcSymbol":"LM1","registryId":53843,"institutionName":"Monash University Library","institutionType":"ACADEMIC","street1":"Wellington Road","city":"Clayton","state":"AU-VI","postalCode":"3800","country":"AU","latitude":-37.91313,"longitude":145.13454,"distance":16338.992153214094,"distanceUnit":"K","oclcNumber":"1224112912"},{"oclcSymbol":"ZYU","registryId":1976,"institutionName":"New York University","institutionType":"ACADEMIC","alsoCalled":"Elmer Holmes Bobst Library","street1":"70 Washington Square South","city":"New York","state":"US-NY","postalCode":"10012","country":"US","latitude":40.729427,"longitude":-73.99722,"distance":6200.4045332524265,"distanceUnit":"K","oclcNumber":"1354998885"},{"oclcSymbol":"LM1","registryId":53843,"institutionName":"Monash University Library","institutionType":"ACADEMIC","street1":"Wellington Road","city":"Clayton","state":"AU-VI","postalCode":"3800","country":"AU","latitude":-37.91313,"longitude":145.13454,"distance":16338.992153214094,"distanceUnit":"K","oclcNumber":"1204228461"},{"oclcSymbol":"AUT","registryId":40260,"institutionName":"National Library of Australia","institutionType":"REGIONAL_OR_NATIONAL","street1":"Parkes Place","city":"Canberra","state":"AU-CT","postalCode":"2600","country":"AU","latitude":-35.29652,"longitude":149.12935,"distance":16442.15007078913,"distanceUnit":"K","oclcNumber":"1320816185"},{"oclcSymbol":"CCHGZ","registryId":112222,"institutionName":"Hangzhou Public Library","institutionType":"PUBLIC","alsoCalled":"杭州图书馆","street1":"No 58 Jiefangdonglu","city":"Hangzhou，Zhejiang","postalCode":"310016","country":"CN","latitude":30.252625,"longitude":120.16508,"distance":8829.489417753091,"distanceUnit":"K","oclcNumber":"1243214294"},{"oclcSymbol":"U@L","registryId":65553,"institutionName":"University of Macau","institutionType":"ACADEMIC","street1":"Wu Yee Sun Library, University of Macau, E2","street2":"Avenida da Universidade, Taipa","city":"Macau","country":"CN","latitude":22.129786,"longitude":113.54599,"distance":9133.250593588788,"distanceUnit":"K","oclcNumber":"1243214294"},{"oclcSymbol":"ATBOR","registryId":40096,"institutionName":"City of Boroondara Library Service","institutionType":"PUBLIC","street1":"Hawthorn Library","street2":"584 Glenferrie Road","city":"Hawthorn","postalCode":"3132","country":"AU","latitude":-37.825294,"longitude":145.03514,"distance":16326.19523681869,"distanceUnit":"K","oclcNumber":"1200843899"},{"oclcSymbol":"AUT","registryId":40260,"institutionName":"National Library of Australia","institutionType":"REGIONAL_OR_NATIONAL","street1":"Parkes Place","city":"Canberra","state":"AU-CT","postalCode":"2600","country":"AU","latitude":-35.29652,"longitude":149.12935,"distance":16442.15007078913,"distanceUnit":"K","oclcNumber":"1200843899"},{"oclcSymbol":"ORX","registryId":14584,"institutionName":"Multnomah County Library","institutionType":"PUBLIC","street1":"221 NE 122nd Avenue","city":"Portland","state":"US-OR","postalCode":"97230","country":"US","latitude":45.52448,"longitude":-122.53854,"distance":8387.27402337125,"distanceUnit":"K","oclcNumber":"1200845595"},{"oclcSymbol":"CCHGZ","registryId":112222,"institutionName":"Hangzhou Public Library","institutionType":"PUBLIC","alsoCalled":"杭州图书馆","street1":"No 58 Jiefangdonglu","city":"Hangzhou，Zhejiang","postalCode":"310016","country":"CN","latitude":30.252625,"longitude":120.16508,"distance":8829.489417753091,"distanceUnit":"K","oclcNumber":"1200845595"},{"oclcSymbol":"ATBOR","registryId":40096,"institutionName":"City of Boroondara Library Service","institutionType":"PUBLIC","street1":"Hawthorn Library","street2":"584 Glenferrie Road","city":"Hawthorn","postalCode":"3132","country":"AU","latitude":-37.825294,"longitude":145.03514,"distance":16326.19523681869,"distanceUnit":"K","oclcNumber":"1200845595"},{"oclcSymbol":"AUT","registryId":40260,"institutionName":"National Library of Australia","institutionType":"REGIONAL_OR_NATIONAL","street1":"Parkes Place","city":"Canberra","state":"AU-CT","postalCode":"2600","country":"AU","latitude":-35.29652,"longitude":149.12935,"distance":16442.15007078913,"distanceUnit":"K","oclcNumber":"1200845595"},{"oclcSymbol":"CCHGZ","registryId":112222,"institutionName":"Hangzhou Public Library","institutionType":"PUBLIC","alsoCalled":"杭州图书馆","street1":"No 58 Jiefangdonglu","city":"Hangzhou，Zhejiang","postalCode":"310016","country":"CN","latitude":30.252625,"longitude":120.16508,"distance":8829.489417753091,"distanceUnit":"K","oclcNumber":"1336585249"},{"oclcSymbol":"MLN","registryId":86798,"institutionName":"Minuteman Library Network","institutionType":"LIBRARY_NETWORK_GROUP","street1":"10 Strathmore Rd","city":"Natick","state":"US-MA","postalCode":"01760","country":"US","latitude":42.28951,"longitude":-71.35502,"distance":5920.2835824333615,"distanceUnit":"K","oclcNumber":"1243240701"},{"oclcSymbol":"CLE","registryId":14223,"institutionName":"Cleveland Public Library","institutionType":"PUBLIC","alsoCalled":"Main Library","street1":"325 Superior Avenue","city":"Cleveland","state":"US-OH","postalCode":"44114-1271","country":"US","latitude":41.501495,"longitude":-81.690865,"distance":6631.954934408229,"distanceUnit":"K","oclcNumber":"1243240701"},{"oclcSymbol":"TOP","registryId":15864,"institutionName":"Allen Public Library","institutionType":"PUBLIC","street1":"300 North Allen Drive","city":"Allen","state":"US-TX","postalCode":"75013","country":"US","latitude":33.105244,"longitude":-96.67088,"distance":8219.685269626389,"distanceUnit":"K","oclcNumber":"1243240701"},{"oclcSymbol":"TXN","registryId":15584,"institutionName":"Houston Public Library","institutionType":"PUBLIC","alsoCalled":"Central Library","street1":"500 McKinney","city":"Houston","state":"US-TX","postalCode":"77002","country":"US","latitude":29.75949,"longitude":-95.369385,"distance":8425.414331622269,"distanceUnit":"K","oclcNumber":"1243240701"},{"oclcSymbol":"FTX","registryId":15722,"institutionName":"Fort Bend County Libraries","institutionType":"PUBLIC","street1":"George Memorial Library","street2":"1001 Golfview Drive","city":"Richmond","state":"US-TX","postalCode":"77469","country":"US","latitude":29.562248,"longitude":-95.75796,"distance":8466.305883626595,"distanceUnit":"K","oclcNumber":"1243240701"},{"oclcSymbol":"CCHGZ","registryId":112222,"institutionName":"Hangzhou Public Library","institutionType":"PUBLIC","alsoCalled":"杭州图书馆","street1":"No 58 Jiefangdonglu","city":"Hangzhou，Zhejiang","postalCode":"310016","country":"CN","latitude":30.252625,"longitude":120.16508,"distance":8829.489417753091,"distanceUnit":"K","oclcNumber":"1243240701"},{"oclcSymbol":"AUCSB","registryId":98046,"institutionName":"Salisbury Library Service","institutionType":"MUSEUM_OR_ARCHIVES","alsoCalled":"City of Salisbury: Len Beadell Library (Salisbury)","street1":"55 John Street","city":"Salisbury SA","postalCode":"5108","country":"AU","latitude":-34.76286,"longitude":138.64536,"distance":15664.74045839872,"distanceUnit":"K","oclcNumber":"1243240701"},{"oclcSymbol":"ATCST","registryId":116077,"institutionName":"City of Charles Sturt Library","institutionType":"PUBLIC","street1":"72 Woodville Rd","city":"Woodvile","postalCode":"5011","country":"AU","latitude":-34.87891,"longitude":138.5381,"distance":15665.188005652562,"distanceUnit":"K","oclcNumber":"1243240701"},{"oclcSymbol":"AUCTP","registryId":98594,"institutionName":"Campbelltown City Council Library Service","institutionType":"PUBLIC","alsoCalled":"Campbelltown Public Library Service","street1":"171 Montacute Road","city":"Newton SA","postalCode":"5074","country":"AU","latitude":-34.887966,"longitude":138.67842,"distance":15675.80429979711,"distanceUnit":"K","oclcNumber":"1243240701"},{"oclcSymbol":"ATVWM","registryId":98474,"institutionName":"Whitehorse Manningham Regional Library Corporation","institutionType":"PUBLIC","street1":"379 Whitehorse Road","city":"Nunawading","state":"AU-VI","postalCode":"3131","country":"AU","latitude":-37.817432,"longitude":145.1816,"distance":16336.08598907892,"distanceUnit":"K","oclcNumber":"1243240701"},{"oclcSymbol":"THHCU","registryId":215990,"institutionName":"Huachiew Chalermprakiet University","institutionType":"ACADEMIC","alsoCalled":"HCU","street1":"18/18 Bang Na-Trat Frontage Rd Tambon Bang Chalong, Amphoe Bang Phli","city":"Chang Wat Samut Prakan","postalCode":"10540","country":"TH","latitude":13.614647,"longitude":100.75916,"distance":8995.801220925305,"distanceUnit":"K","oclcNumber":"1411601382"},{"oclcSymbol":"THHCU","registryId":215990,"institutionName":"Huachiew Chalermprakiet University","institutionType":"ACADEMIC","alsoCalled":"HCU","street1":"18/18 Bang Na-Trat Frontage Rd Tambon Bang Chalong, Amphoe Bang Phli","city":"Chang Wat Samut Prakan","postalCode":"10540","country":"TH","latitude":13.614647,"longitude":100.75916,"distance":8995.801220925305,"distanceUnit":"K","oclcNumber":"1412146624"},{"oclcSymbol":"AUT","registryId":40260,"institutionName":"National Library of Australia","institutionType":"REGIONAL_OR_NATIONAL","street1":"Parkes Place","city":"Canberra","state":"AU-CT","postalCode":"2600","country":"AU","latitude":-35.29652,"longitude":149.12935,"distance":16442.15007078913,"distanceUnit":"K","oclcNumber":"1336550805"},{"oclcSymbol":"CCHGZ","registryId":112222,"institutionName":"Hangzhou Public Library","institutionType":"PUBLIC","alsoCalled":"杭州图书馆","street1":"No 58 Jiefangdonglu","city":"Hangzhou，Zhejiang","postalCode":"310016","country":"CN","latitude":30.252625,"longitude":120.16508,"distance":8829.489417753091,"distanceUnit":"K","oclcNumber":"1243209988"},{"oclcSymbol":"CCHGZ","registryId":112222,"institutionName":"Hangzhou Public Library","institutionType":"PUBLIC","alsoCalled":"杭州图书馆","street1":"No 58 Jiefangdonglu","city":"Hangzhou，Zhejiang","postalCode":"310016","country":"CN","latitude":30.252625,"longitude":120.16508,"distance":8829.489417753091,"distanceUnit":"K","oclcNumber":"1200843842"},{"oclcSymbol":"JQW","registryId":8528,"institutionName":"LA COUNTY LIBRARY","institutionType":"PUBLIC","alsoCalled":"County of Los Angeles Public Library","street1":"7400 East Imperial Highway","city":"Downey","state":"US-CA","postalCode":"90241-7011","country":"US","latitude":33.92789,"longitude":-118.161545,"distance":9309.531345711686,"distanceUnit":"K","oclcNumber":"1235814520"},{"oclcSymbol":"ZQP","registryId":71949,"institutionName":"Queens Public Library","institutionType":"PUBLIC","alsoCalled":"Queens Library: Queens Borough Public Library","street1":"89-11 Merrick Boulevard","city":"Jamaica","state":"US-NY","postalCode":"11432","country":"US","latitude":40.707787,"longitude":-73.794716,"distance":6188.807886451222,"distanceUnit":"K","oclcNumber":"1262764682"},{"oclcSymbol":"NYP","registryId":58122,"institutionName":"New York Public Library System","institutionType":"PUBLIC","alsoCalled":"NYPL","street1":"Fifth Avenue at 42nd Street","city":"New York","state":"US-NY","postalCode":"10018-2788","country":"US","latitude":40.753498,"longitude":-73.98089,"distance":6197.636374105711,"distanceUnit":"K","oclcNumber":"1262764682"},{"oclcSymbol":"BKL","registryId":13437,"institutionName":"Brooklyn Public Library","institutionType":"PUBLIC","alsoCalled":"Central Library","street1":"10 Grand Army Plaza","city":"Brooklyn","state":"US-NY","postalCode":"11238","country":"US","latitude":40.6725,"longitude":-73.968124,"distance":6202.563161536748,"distanceUnit":"K","oclcNumber":"1262764682"},{"oclcSymbol":"CCHGZ","registryId":112222,"institutionName":"Hangzhou Public Library","institutionType":"PUBLIC","alsoCalled":"杭州图书馆","street1":"No 58 Jiefangdonglu","city":"Hangzhou，Zhejiang","postalCode":"310016","country":"CN","latitude":30.252625,"longitude":120.16508,"distance":8829.489417753091,"distanceUnit":"K","oclcNumber":"1200648515"},{"oclcSymbol":"HUL","registryId":73876,"institutionName":"Harvard University","institutionType":"ACADEMIC","alsoCalled":"Harvard Library","street1":"Harvard University","city":"Cambridge","state":"US-MA","postalCode":"02138","country":"US","latitude":42.379486,"longitude":-71.11653,"distance":5898.670972048441,"distanceUnit":"K","oclcNumber":"1344360565"},{"oclcSymbol":"ZCU","registryId":4861,"institutionName":"Columbia University in the City of New York","institutionType":"ACADEMIC","alsoCalled":"Columbia University Libraries","street1":"535 West 114th Street","city":"New York","state":"US-NY","postalCode":"10027-7035","country":"US","latitude":40.806236,"longitude":-73.96326,"distance":6192.750022328971,"distanceUnit":"K","oclcNumber":"1344360565"},{"oclcSymbol":"IUL","registryId":5279,"institutionName":"Indiana University","institutionType":"ACADEMIC","street1":"1320 East 10th Street","city":"Bloomington","state":"US-IN","postalCode":"47405-3907","country":"US","latitude":39.17216,"longitude":-86.52552,"distance":7107.579529722649,"distanceUnit":"K","oclcNumber":"1344360565"},{"oclcSymbol":"CNZJL","registryId":37796,"institutionName":"Zhejiang Library","institutionType":"ACADEMIC","street1":"73 Shunguang Rd","city":"Hangzhou","postalCode":"310007","country":"CN","latitude":30.252625,"longitude":120.16508,"distance":8829.489417753091,"distanceUnit":"K","oclcNumber":"1344360565"},{"oclcSymbol":"CUY","registryId":5689,"institutionName":"UC Berkeley Libraries","institutionType":"ACADEMIC","street1":"133 Doe Library","street2":"University of California","city":"Berkeley","state":"US-CA","postalCode":"94720-6000","country":"US","latitude":37.87575,"longitude":-122.24341,"distance":9115.023971148703,"distanceUnit":"K","oclcNumber":"1344360565"},{"oclcSymbol":"L2U","registryId":53238,"institutionName":"Leiden University Libraries","institutionType":"ACADEMIC","alsoCalled":"Universitaire Bibliotheken Leiden","street1":"Witte Singel 27","city":"Leiden","postalCode":"2311 BG","country":"NL","latitude":52.157307,"longitude":4.481427,"distance":370.5077498902995,"distanceUnit":"K","oclcNumber":"1338310985"},{"oclcSymbol":"HUL","registryId":73876,"institutionName":"Harvard University","institutionType":"ACADEMIC","alsoCalled":"Harvard Library","street1":"Harvard University","city":"Cambridge","state":"US-MA","postalCode":"02138","country":"US","latitude":42.379486,"longitude":-71.11653,"distance":5898.670972048441,"distanceUnit":"K","oclcNumber":"1338310985"},{"oclcSymbol":"UAB","registryId":65567,"institutionName":"University of Alberta","institutionType":"ACADEMIC","alsoCalled":"University of Alberta Library","street1":"5-02 Cameron Libr","city":"Edmonton","state":"CA-AB","postalCode":"T6G 2J8","country":"CA","latitude":53.526733,"longitude":-113.52361,"distance":7288.342749133143,"distanceUnit":"K","oclcNumber":"1338310985"},