{"oclcSymbol":"HUL","registryId":73876,"institutionName":"Harvard University","institutionType":"ACADEMIC","alsoCalled":"Harvard Library","street1":"Harvard University","city":"Cambridge","state":"US-MA","postalCode":"02138","country":"US","latitude":42.379486,"longitude":-71.11653,"distance":5898.670972048441,"distanceUnit":"K","oclcNumber":"1083542199"},{"oclcSymbol":"ZCU","registryId":4861,"institutionName":"Columbia University in the City of New York","institutionType":"ACADEMIC","alsoCalled":"Columbia University Libraries","street1":"535 West 114th Street","city":"New York","state":"US-NY","postalCode":"10027-7035","country":"US","latitude":40.806236,"longitude":-73.96326,"distance":6192.750022328971,"distanceUnit":"K","oclcNumber":"1083542199"},{"oclcSymbol":"COO","registryId":3913,"institutionName":"Cornell University Library","institutionType":"ACADEMIC","street1":"201 Olin Library","city":"Ithaca","state":"US-NY","postalCode":"14853-5301","country":"US","latitude":42.44667,"longitude":-76.495735,"distance":6238.384448048609,"distanceUnit":"K","oclcNumber":"1083542199"},{"oclcSymbol":"PUL","registryId":1791,"institutionName":"Princeton University Library","institutionType":"ACADEMIC","alsoCalled":"Firestone Library","street1":"1 Washington Rd","city":"Princeton","state":"US-NJ","postalCode":"08544-2098","country":"US","latitude":40.349854,"longitude":-74.65912,"distance":6270.382818212047,"distanceUnit":"K","oclcNumber":"1083542199"},{"oclcSymbol":"CNEAL","registryId":104498,"institutionName":"University of Toronto East Asian Library","institutionType":"ACADEMIC","street1":"130 St George St 8th Fl","city":"Toronto","state":"CA-ON","postalCode":"M5S 1A5","country":"CA","latitude":43.665096,"longitude":-79.399315,"distance":6332.484953290851,"distanceUnit":"K","oclcNumber":"1083542199"},{"oclcSymbol":"PAU","registryId":2583,"institutionName":"University of Pennsylvania Libraries","institutionType":"ACADEMIC","alsoCalled":"Penn Libraries","street1":"Library","street2":"3420 Walnut St","city":"Philadelphia","state":"US-PA","postalCode":"19104-6206","country":"US","latitude":39.952724,"longitude":-75.194,"distance":6333.612472191301,"distanceUnit":"K","oclcNumber":"1083542199"},{"oclcSymbol":"DLC","registryId":45266,"institutionName":"Library of Congress","institutionType":"REGIONAL_OR_NATIONAL","street1":"101 Independence Avenue, SE","city":"Washington","state":"US-DC","postalCode":"20540","country":"US","latitude":38.88863,"longitude":-77.00475,"distance":6528.602785373047,"distanceUnit":"K","oclcNumber":"1083542199"},{"oclcSymbol":"LNN","registryId":114986,"institutionName":"Library of Congress, Cataloging Directorate","institutionType":"REGIONAL_OR_NATIONAL","street1":"101 Independence Avenue, SE","city":"Washington","state":"US-DC","postalCode":"20540","country":"US","latitude":38.88697,"longitude":-77.00466,"distance":6528.719426450103,"distanceUnit":"K","oclcNumber":"1083542199"},{"oclcSymbol":"NUI","registryId":57888,"institutionName":"University of Iowa Libraries","institutionType":"ACADEMIC","street1":"125 W Washington St.","city":"Iowa City","state":"US-IA","postalCode":"52242-1479","country":"US","latitude":41.659412,"longitude":-91.53811,"distance":7210.150876398513,"distanceUnit":"K","oclcNumber":"1083542199"},{"oclcSymbol":"WTU","registryId":1724,"institutionName":"Washington University in St. Louis","institutionType":"ACADEMIC","alsoCalled":".","street1":"One Brookings Drive, MSC 1061-141-B","city":"St. Louis","state":"US-MO","postalCode":"63130","country":"US","latitude":38.648453,"longitude":-90.307724,"distance":7378.5450160625,"distanceUnit":"K","oclcNumber":"1083542199"},{"oclcSymbol":"CNZJL","registryId":37796,"institutionName":"Zhejiang Library","institutionType":"ACADEMIC","street1":"73 Shunguang Rd","city":"Hangzhou","postalCode":"310007","country":"CN","latitude":30.252625,"longitude":120.16508,"distance":8829.489417753091,"distanceUnit":"K","oclcNumber":"1083542199"},{"oclcSymbol":"CCHGZ","registryId":112222,"institutionName":"Hangzhou Public Library","institutionType":"PUBLIC","alsoCalled":"杭州图书馆","street1":"No 58 Jiefangdonglu","city":"Hangzhou，Zhejiang","postalCode":"310016","country":"CN","latitude":30.252625,"longitude":120.16508,"distance":8829.489417753091,"distanceUnit":"K","oclcNumber":"1083542199"},{"oclcSymbol":"CRU","registryId":208,"institutionName":"University of California, Riverside","institutionType":"ACADEMIC","alsoCalled":"UCR","street1":"Ill - Rivera Library / University of California","street2":"3401 Watkins Drive","city":"Riverside","state":"US-CA","postalCode":"92521-0409","country":"US","latitude":33.972725,"longitude":-117.32714,"distance":9265.311926603366,"distanceUnit":"K","oclcNumber":"1083542199"},{"oclcSymbol":"CLU","registryId":207,"institutionName":"University of California, Los Angeles","institutionType":"ACADEMIC","street1":"280 Charles E. Young Dr.","city":"Los Angeles","state":"US-CA","postalCode":"90255","country":"US","latitude":34.07501,"longitude":-118.441185,"distance":9308.793889187069,"distanceUnit":"K","oclcNumber":"1083542199"},{"oclcSymbol":"L2U","registryId":53238,"institutionName":"Leiden University Libraries","institutionType":"ACADEMIC","alsoCalled":"Universitaire Bibliotheken Leiden","street1":"Witte Singel 27","city":"Leiden","postalCode":"2311 BG","country":"NL","latitude":52.157307,"longitude":4.481427,"distance":370.5077498902995,"distanceUnit":"K","oclcNumber":"1056247858"},{"oclcSymbol":"HUL","registryId":73876,"institutionName":"Harvard University","institutionType":"ACADEMIC","alsoCalled":"Harvard Library","street1":"Harvard University","city":"Cambridge","state":"US-MA","postalCode":"02138","country":"US","latitude":42.379486,"longitude":-71.11653,"distance":5898.670972048441,"distanceUnit":"K","oclcNumber":"1056247858"},{"oclcSymbol":"RBN","registryId":105271,"institutionName":"Brown University","institutionType":"ACADEMIC","alsoCalled":"Brown University Library","street1":"10 Prospect Street","street2":"Box A","city":"Providence","state":"US-RI","postalCode":"02912","country":"US","latitude":41.82642,"longitude":-71.40051,"distance":5955.0254414322635,"distanceUnit":"K","oclcNumber":"1056247858"},{"oclcSymbol":"YUS","registryId":544,"institutionName":"Yale University Library","institutionType":"ACADEMIC","street1":"Sterling Mem Libr 130 Wall St","street2":"PO Box 208240","city":"New Haven","state":"US-CT","postalCode":"06520-8240","country":"US","latitude":41.309837,"longitude":-72.92811,"distance":6090.136001032786,"distanceUnit":"K","oclcNumber":"1056247858"},{"oclcSymbol":"ZCU","registryId":4861,"institutionName":"Columbia University in the City of New York","institutionType":"ACADEMIC","alsoCalled":"Columbia University Libraries","street1":"535 West 114th Street","city":"New York","state":"US-NY","postalCode":"10027-7035","country":"US","latitude":40.806236,"longitude":-73.96326,"distance":6192.750022328971,"distanceUnit":"K","oclcNumber":"1056247858"},{"oclcSymbol":"BNG","registryId":2031,"institutionName":"State University of New York, Binghamton University Libraries","institutionType":"ACADEMIC","alsoCalled":"Glenn G. Bartle Library","street1":"Vestal Pky E","street2":"PO Box 6012","city":"Binghamton","state":"US-NY","postalCode":"13902-6012","country":"US","latitude":42.08883,"longitude":-75.96697,"distance":6230.293280084618,"distanceUnit":"K","oclcNumber":"1056247858"},{"oclcSymbol":"COO","registryId":3913,"institutionName":"Cornell University Library","institutionType":"ACADEMIC","street1":"201 Olin Library","city":"Ithaca","state":"US-NY","postalCode":"14853-5301","country":"US","latitude":42.44667,"longitude":-76.495735,"distance":6238.384448048609,"distanceUnit":"K","oclcNumber":"1056247858"},{"oclcSymbol":"UPM","registryId":2571,"institutionName":"Pennsylvania State University Libraries","institutionType":"ACADEMIC","street1":"127 Paterno Library","city":"University Park","state":"US-PA","postalCode":"16802-1808","country":"US","latitude":40.79788,"longitude":-77.86602,"distance":6443.843440550913,"distanceUnit":"K","oclcNumber":"1056247858"},{"oclcSymbol":"DLC","registryId":45266,"institutionName":"Library of Congress","institutionType":"REGIONAL_OR_NATIONAL","street1":"101 Independence Avenue, SE","city":"Washington","state":"US-DC","postalCode":"20540","country":"US","latitude":38.88863,"longitude":-77.00475,"distance":6528.602785373047,"distanceUnit":"K","oclcNumber":"1056247858"},{"oclcSymbol":"LNN","registryId":114986,"institutionName":"Library of Congress, Cataloging Directorate","institutionType":"REGIONAL_OR_NATIONAL","street1":"101 Independence Avenue, SE","city":"Washington","state":"US-DC","postalCode":"20540","country":"US","latitude":38.88697,"longitude":-77.00466,"distance":6528.719426450103,"distanceUnit":"K","oclcNumber":"1056247858"},{"oclcSymbol":"OBE","registryId":2304,"institutionName":"Oberlin College Libraries","institutionType":"ACADEMIC","street1":"148 West College Street","city":"Oberlin","state":"US-OH","postalCode":"44074-1532","country":"US","latitude":41.292927,"longitude":-82.2228,"distance":6680.410813469558,"distanceUnit":"K","oclcNumber":"1056247858"},{"oclcSymbol":"EYM","registryId":5293,"institutionName":"University of Michigan","institutionType":"ACADEMIC","alsoCalled":"University of Michigan - Ann Arbor","street1":"818 Hatcher Graduate Library","street2":"913 S. University Avenue","city":"Ann Arbor","state":"US-MI","postalCode":"48109-1190","country":"US","latitude":42.2763,"longitude":-83.7382,"distance":6699.5468970135225,"distanceUnit":"K","oclcNumber":"1056247858"},{"oclcSymbol":"NDD","registryId":2106,"institutionName":"Duke University Libraries","institutionType":"ACADEMIC","alsoCalled":"Duke University Library; Perkins Library","street1":"411 Chapel Drive","street2":"PO Box 90188","city":"Durham","state":"US-NC","postalCode":"27708","country":"US","latitude":36.00183,"longitude":-78.93905,"distance":6871.28474713783,"distanceUnit":"K","oclcNumber":"1056247858"},{"oclcSymbol":"UIU","registryId":5415,"institutionName":"University of Illinois at Urbana Champaign","institutionType":"ACADEMIC","street1":"1408 W Gregory Dr","street2":"128 Main Libr Mc 522","city":"Urbana","state":"US-IL","postalCode":"61801-3692","country":"US","latitude":40.10469,"longitude":-88.227066,"distance":7137.761295036732,"distanceUnit":"K","oclcNumber":"1056247858"},{"oclcSymbol":"NUI","registryId":57888,"institutionName":"University of Iowa Libraries","institutionType":"ACADEMIC","street1":"125 W Washington St.","city":"Iowa City","state":"US-IA","postalCode":"52242-1479","country":"US","latitude":41.659412,"longitude":-91.53811,"distance":7210.150876398513,"distanceUnit":"K","oclcNumber":"1056247858"},{"oclcSymbol":"UBC","registryId":65595,"institutionName":"University of British Columbia Library","institutionType":"ACADEMIC","street1":"Irving K. Barber Learning Centre","street2":"1956 Main Mall","city":"Vancouver","state":"CA-BC","postalCode":"V6T 1Z1","country":"CA","latitude":49.267506,"longitude":-123.25255,"distance":8053.47483756799,"distanceUnit":"K","oclcNumber":"1056247858"},{"oclcSymbol":"CUY","registryId":5689,"institutionName":"UC Berkeley Libraries","institutionType":"ACADEMIC","street1":"133 Doe Library","street2":"University of California","city":"Berkeley","state":"US-CA","postalCode":"94720-6000","country":"US","latitude":37.87575,"longitude":-122.24341,"distance":9115.023971148703,"distanceUnit":"K","oclcNumber":"1056247858"},{"oclcSymbol":"STF","registryId":3227,"institutionName":"Stanford University Libraries","institutionType":"ACADEMIC","street1":"Green Library","street2":"Arguello Way","city":"Stanford","state":"US-CA","postalCode":"94305-6004","country":"US","latitude":37.43137,"longitude":-122.16892,"distance":9154.907042870153,"distanceUnit":"K","oclcNumber":"1056247858"},{"oclcSymbol":"CRU","registryId":208,"institutionName":"University of California, Riverside","institutionType":"ACADEMIC","alsoCalled":"UCR","street1":"Ill - Rivera Library / University of California","street2":"3401 Watkins Drive","city":"Riverside","state":"US-CA","postalCode":"92521-0409","country":"US","latitude":33.972725,"longitude":-117.32714,"distance":9265.311926603366,"distanceUnit":"K","oclcNumber":"1056247858"},{"oclcSymbol":"LGV","registryId":5642,"institutionName":"Logos Evangelical Seminary Library","institutionType":"ACADEMIC","alsoCalled":"Logos Library; 正道神學圖書館","street1":"9378 Telstar Ave","city":"El Monte","state":"US-CA","postalCode":"91731-2816","country":"US","latitude":34.068684,"longitude":-118.06508,"distance":9291.533485258113,"distanceUnit":"K","oclcNumber":"1056247858"},{"oclcSymbol":"CUI","registryId":5656,"institutionName":"University of California, Irvine","institutionType":"ACADEMIC","alsoCalled":"Langson Library","street1":"Univ of California Irvine","city":"Irvine","state":"US-CA","postalCode":"92697","country":"US","latitude":33.647266,"longitude":-117.841034,"distance":9320.915822937264,"distanceUnit":"K","oclcNumber":"1056247858"},{"oclcSymbol":"LE1","registryId":87591,"institutionName":"University of Adelaide Library","institutionType":"ACADEMIC","alsoCalled":"Barr Smith Library; University of Adelaide Libraries","street1":"North Terrace","city":"Adelaide","state":"AU-SA","postalCode":"5005","country":"AU","latitude":-34.91935,"longitude":138.60513,"distance":15672.76995773374,"distanceUnit":"K","oclcNumber":"1056247858"},{"oclcSymbol":"DRB","registryId":1742,"institutionName":"Dartmouth Library","institutionType":"ACADEMIC","street1":"6025 Baker-Berry Library","city":"Hanover","state":"US-NH","postalCode":"03755-3525","country":"US","latitude":43.705456,"longitude":-72.28883,"distance":5884.030903835973,"distanceUnit":"K","oclcNumber":"1083542139"},{"oclcSymbol":"HUL","registryId":73876,"institutionName":"Harvard University","institutionType":"ACADEMIC","alsoCalled":"Harvard Library","street1":"Harvard University","city":"Cambridge","state":"US-MA","postalCode":"02138","country":"US","latitude":42.379486,"longitude":-71.11653,"distance":5898.670972048441,"distanceUnit":"K","oclcNumber":"1083542139"},{"oclcSymbol":"YUS","registryId":544,"institutionName":"Yale University Library","institutionType":"ACADEMIC","street1":"Sterling Mem Libr 130 Wall St","street2":"PO Box 208240","city":"New Haven","state":"US-CT","postalCode":"06520-8240","country":"US","latitude":41.309837,"longitude":-72.92811,"distance":6090.136001032786,"distanceUnit":"K","oclcNumber":"1083542139"},{"oclcSymbol":"ZCU","registryId":4861,"institutionName":"Columbia University in the City of New York","institutionType":"ACADEMIC","alsoCalled":"Columbia University Libraries","street1":"535 West 114th Street","city":"New York","state":"US-NY","postalCode":"10027-7035","country":"US","latitude":40.806236,"longitude":-73.96326,"distance":6192.750022328971,"distanceUnit":"K","oclcNumber":"1083542139"},{"oclcSymbol":"NYP","registryId":58122,"institutionName":"New York Public Library System","institutionType":"PUBLIC","alsoCalled":"NYPL","street1":"Fifth Avenue at 42nd Street","city":"New York","state":"US-NY","postalCode":"10018-2788","country":"US","latitude":40.753498,"longitude":-73.98089,"distance":6197.636374105711,"distanceUnit":"K","oclcNumber":"1083542139"},{"oclcSymbol":"PUL","registryId":1791,"institutionName":"Princeton University Library","institutionType":"ACADEMIC","alsoCalled":"Firestone Library","street1":"1 Washington Rd","city":"Princeton","state":"US-NJ","postalCode":"08544-2098","country":"US","latitude":40.349854,"longitude":-74.65912,"distance":6270.382818212047,"distanceUnit":"K","oclcNumber":"1083542139"},{"oclcSymbol":"DLC","registryId":45266,"institutionName":"Library of Congress","institutionType":"REGIONAL_OR_NATIONAL","street1":"101 Independence Avenue, SE","city":"Washington","state":"US-DC","postalCode":"20540","country":"US","latitude":38.88863,"longitude":-77.00475,"distance":6528.602785373047,"distanceUnit":"K","oclcNumber":"1083542139"},{"oclcSymbol":"LNN","registryId":114986,"institutionName":"Library of Congress, Cataloging Directorate","institutionType":"REGIONAL_OR_NATIONAL","street1":"101 Independence Avenue, SE","city":"Washington","state":"US-DC","postalCode":"20540","country":"US","latitude":38.88697,"longitude":-77.00466,"distance":6528.719426450103,"distanceUnit":"K","oclcNumber":"1083542139"},{"oclcSymbol":"NOC","registryId":5050,"institutionName":"University of North Carolina at Chapel Hill. University Libraries","institutionType":"ACADEMIC","alsoCalled":"UNC University Libraries","street1":"208 Raleigh Street","street2":"Davis Library CB #3916","city":"Chapel Hill","state":"US-NC","postalCode":"27514-8890","country":"US","latitude":35.91105,"longitude":-79.04806,"distance":6885.3487503915,"distanceUnit":"K","oclcNumber":"1083542139"},{"oclcSymbol":"CGU","registryId":110147,"institutionName":"University of Chicago Library","institutionType":"ACADEMIC","street1":"1100 E. 57th Street","city":"Chicago","state":"US-IL","postalCode":"60637","country":"US","latitude":41.792255,"longitude":-87.599976,"distance":6968.537876102337,"distanceUnit":"K","oclcNumber":"1083542139"},{"oclcSymbol":"MNU","registryId":5360,"institutionName":"University of Minnesota, Twin Cities","institutionType":"ACADEMIC","street1":"499 Wilson Libr","street2":"309 19th Ave S","city":"Minneapolis","state":"US-MN","postalCode":"55455-0414","country":"US","latitude":44.976074,"longitude":-93.23086,"distance":7042.418768240276,"distanceUnit":"K","oclcNumber":"1083542139"},{"oclcSymbol":"NUI","registryId":57888,"institutionName":"University of Iowa Libraries","institutionType":"ACADEMIC","street1":"125 W Washington St.","city":"Iowa City","state":"US-IA","postalCode":"52242-1479","country":"US","latitude":41.659412,"longitude":-91.53811,"distance":7210.150876398513,"distanceUnit":"K","oclcNumber":"1083542139"},{"oclcSymbol":"CUY","registryId":5689,"institutionName":"UC Berkeley Libraries","institutionType":"ACADEMIC","street1":"133 Doe Library","street2":"University of California","city":"Berkeley","state":"US-CA","postalCode":"94720-6000","country":"US","latitude":37.87575,"longitude":-122.24341,"distance":9115.023971148703,"distanceUnit":"K","oclcNumber":"1083542139"},{"oclcSymbol":"STF","registryId":3227,"institutionName":"Stanford University Libraries","institutionType":"ACADEMIC","street1":"Green Library","street2":"Arguello Way","city":"Stanford","state":"US-CA","postalCode":"94305-6004","country":"US","latitude":37.43137,"longitude":-122.16892,"distance":9154.907042870153,"distanceUnit":"K","oclcNumber":"1083542139"},{"oclcSymbol":"ZAS","registryId":5620,"institutionName":"University of California Los Angeles","institutionType":"ACADEMIC","alsoCalled":"Southern Regional Library Facility","street1":"Southern Regional Libr Fac","street2":"305 de Neve Drive, Box 951388","city":"Los Angeles","state":"US-CA","postalCode":"90095-1388","country":"US","latitude":34.05678,"longitude":-118.24259,"distance":9301.110233238789,"distanceUnit":"K","oclcNumber":"1083542139"},{"oclcSymbol":"CLU","registryId":207,"institutionName":"University of California, Los Angeles","institutionType":"ACADEMIC","street1":"280 Charles E. Young Dr.","city":"Los Angeles","state":"US-CA","postalCode":"90255","country":"US","latitude":34.07501,"longitude":-118.441185,"distance":9308.793889187069,"distanceUnit":"K","oclcNumber":"1083542139"},{"oclcSymbol":"L2U","registryId":53238,"institutionName":"Leiden University Libraries","institutionType":"ACADEMIC","alsoCalled":"Universitaire Bibliotheken Leiden","street1":"Witte Singel 27","city":"Leiden","postalCode":"2311 BG","country":"NL","latitude":52.157307,"longitude":4.481427,"distance":370.5077498902995,"distanceUnit":"K","oclcNumber":"1083621013"},{"oclcSymbol":"ZCU","registryId":4861,"institutionName":"Columbia University in the City of New York","institutionType":"ACADEMIC","alsoCalled":"Columbia University Libraries","street1":"535 West 114th Street","city":"New York","state":"US-NY","postalCode":"10027-7035","country":"US","latitude":40.806236,"longitude":-73.96326,"distance":6192.750022328971,"distanceUnit":"K","oclcNumber":"1083621013"},{"oclcSymbol":"PUL","registryId":1791,"institutionName":"Princeton University Library","institutionType":"ACADEMIC","alsoCalled":"Firestone Library","street1":"1 Washington Rd","city":"Princeton","state":"US-NJ","postalCode":"08544-2098","country":"US","latitude":40.349854,"longitude":-74.65912,"distance":6270.382818212047,"distanceUnit":"K","oclcNumber":"1083621013"},{"oclcSymbol":"CNEAL","registryId":104498,"institutionName":"University of Toronto East Asian Library","institutionType":"ACADEMIC","street1":"130 St George St 8th Fl","city":"Toronto","state":"CA-ON","postalCode":"M5S 1A5","country":"CA","latitude":43.665096,"longitude":-79.399315,"distance":6332.484953290851,"distanceUnit":"K","oclcNumber":"1083621013"},{"oclcSymbol":"DLC","registryId":45266,"institutionName":"Library of Congress","institutionType":"REGIONAL_OR_NATIONAL","street1":"101 Independence Avenue, SE","city":"Washington","state":"US-DC","postalCode":"20540","country":"US","latitude":38.88863,"longitude":-77.00475,"distance":6528.602785373047,"distanceUnit":"K","oclcNumber":"1083621013"},{"oclcSymbol":"LNN","registryId":114986,"institutionName":"Library of Congress, Cataloging Directorate","institutionType":"REGIONAL_OR_NATIONAL","street1":"101 Independence Avenue, SE","city":"Washington","state":"US-DC","postalCode":"20540","country":"US","latitude":38.88697,"longitude":-77.00466,"distance":6528.719426450103,"distanceUnit":"K","oclcNumber":"1083621013"},{"oclcSymbol":"NDD","registryId":2106,"institutionName":"Duke University Libraries","institutionType":"ACADEMIC","alsoCalled":"Duke University Library; Perkins Library","street1":"411 Chapel Drive","street2":"PO Box 90188","city":"Durham","state":"US-NC","postalCode":"27708","country":"US","latitude":36.00183,"longitude":-78.93905,"distance":6871.28474713783,"distanceUnit":"K","oclcNumber":"1083621013"},{"oclcSymbol":"CGU","registryId":110147,"institutionName":"University of Chicago Library","institutionType":"ACADEMIC","street1":"1100 E. 57th Street","city":"Chicago","state":"US-IL","postalCode":"60637","country":"US","latitude":41.792255,"longitude":-87.599976,"distance":6968.537876102337,"distanceUnit":"K","oclcNumber":"1083621013"},{"oclcSymbol":"WTU","registryId":1724,"institutionName":"Washington University in St. Louis","institutionType":"ACADEMIC","alsoCalled":".","street1":"One Brookings Drive, MSC 1061-141-B","city":"St. Louis","state":"US-MO","postalCode":"63130","country":"US","latitude":38.648453,"longitude":-90.307724,"distance":7378.5450160625,"distanceUnit":"K","oclcNumber":"1083621013"},{"oclcSymbol":"EMU","registryId":699,"institutionName":"Emory University","institutionType":"ACADEMIC","alsoCalled":"Robert W. Woodruff Library (Woodruff Main Library)","street1":"Robert W. Woodruff Library","street2":"540 Asbury Circle, NE","city":"Atlanta","state":"US-GA","postalCode":"30322","country":"US","latitude":33.79044,"longitude":-84.32282,"distance":7393.571775966326,"distanceUnit":"K","oclcNumber":"1083621013"},{"oclcSymbol":"WAU","registryId":5725,"institutionName":"University of Washington Libraries","institutionType":"ACADEMIC","street1":"Box 352900","city":"Seattle","state":"US-WA","postalCode":"98195-2900","country":"US","latitude":47.65368,"longitude":-122.29911,"distance":8173.278736712033,"distanceUnit":"K","oclcNumber":"1083621013"},{"oclcSymbol":"CUY","registryId":5689,"institutionName":"UC Berkeley Libraries","institutionType":"ACADEMIC","street1":"133 Doe Library","street2":"University of California","city":"Berkeley","state":"US-CA","postalCode":"94720-6000","country":"US","latitude":37.87575,"longitude":-122.24341,"distance":9115.023971148703,"distanceUnit":"K","oclcNumber":"1083621013"},{"oclcSymbol":"U@L","registryId":65553,"institutionName":"University of Macau","institutionType":"ACADEMIC","street1":"Wu Yee Sun Library, University of Macau, E2","street2":"Avenida da Universidade, Taipa","city":"Macau","country":"CN","latitude":22.129786,"longitude":113.54599,"distance":9133.250593588788,"distanceUnit":"K","oclcNumber":"1083621013"},{"oclcSymbol":"ZAS","registryId":5620,"institutionName":"University of California Los Angeles","institutionType":"ACADEMIC","alsoCalled":"Southern Regional Library Facility","street1":"Southern Regional Libr Fac","street2":"305 de Neve Drive, Box 951388","city":"Los Angeles","state":"US-CA","postalCode":"90095-1388","country":"US","latitude":34.05678,"longitude":-118.24259,"distance":9301.110233238789,"distanceUnit":"K","oclcNumber":"1083621013"},{"oclcSymbol":"CLU","registryId":207,"institutionName":"University of California, Los Angeles","institutionType":"ACADEMIC","street1":"280 Charles E. Young Dr.","city":"Los Angeles","state":"US-CA","postalCode":"90255","country":"US","latitude":34.07501,"longitude":-118.441185,"distance":9308.793889187069,"distanceUnit":"K","oclcNumber":"1083621013"},{"oclcSymbol":"HUH","registryId":760,"institutionName":"University of Hawaii at Manoa","institutionType":"ACADEMIC","alsoCalled":"Hamilton Library","street1":"Hamilton Library","street2":"2550 McCarthy Mall","city":"Honolulu","state":"US-HI","postalCode":"96822","country":"US","latitude":21.300537,"longitude":-157.81621,"distance":11962.425698979041,"distanceUnit":"K","oclcNumber":"1083621013"},{"oclcSymbol":"HUL","registryId":73876,"institutionName":"Harvard University","institutionType":"ACADEMIC","alsoCalled":"Harvard Library","street1":"Harvard University","city":"Cambridge","state":"US-MA","postalCode":"02138","country":"US","latitude":42.379486,"longitude":-71.11653,"distance":5898.670972048441,"distanceUnit":"K","oclcNumber":"1041839690"},{"oclcSymbol":"ZCU","registryId":4861,"institutionName":"Columbia University in the City of New York","institutionType":"ACADEMIC","alsoCalled":"Columbia University Libraries","street1":"535 West 114th Street","city":"New York","state":"US-NY","postalCode":"10027-7035","country":"US","latitude":40.806236,"longitude":-73.96326,"distance":6192.750022328971,"distanceUnit":"K","oclcNumber":"1041839690"},{"oclcSymbol":"ZYU","registryId":1976,"institutionName":"New York University","institutionType":"ACADEMIC","alsoCalled":"Elmer Holmes Bobst Library","street1":"70 Washington Square South","city":"New York","state":"US-NY","postalCode":"10012","country":"US","latitude":40.729427,"longitude":-73.99722,"distance":6200.4045332524265,"distanceUnit":"K","oclcNumber":"1041839690"},{"oclcSymbol":"COO","registryId":3913,"institutionName":"Cornell University Library","institutionType":"ACADEMIC","street1":"201 Olin Library","city":"Ithaca","state":"US-NY","postalCode":"14853-5301","country":"US","latitude":42.44667,"longitude":-76.495735,"distance":6238.384448048609,"distanceUnit":"K","oclcNumber":"1041839690"},{"oclcSymbol":"PUL","registryId":1791,"institutionName":"Princeton University Library","institutionType":"ACADEMIC","alsoCalled":"Firestone Library","street1":"1 Washington Rd","city":"Princeton","state":"US-NJ","postalCode":"08544-2098","country":"US","latitude":40.349854,"longitude":-74.65912,"distance":6270.382818212047,"distanceUnit":"K","oclcNumber":"1041839690"},{"oclcSymbol":"PAU","registryId":2583,"institutionName":"University of Pennsylvania Libraries","institutionType":"ACADEMIC","alsoCalled":"Penn Libraries","street1":"Library","street2":"3420 Walnut St","city":"Philadelphia","state":"US-PA","postalCode":"19104-6206","country":"US","latitude":39.952724,"longitude":-75.194,"distance":6333.612472191301,"distanceUnit":"K","oclcNumber":"1041839690"},{"oclcSymbol":"DLC","registryId":45266,"institutionName":"Library of Congress","institutionType":"REGIONAL_OR_NATIONAL","street1":"101 Independence Avenue, SE","city":"Washington","state":"US-DC","postalCode":"20540","country":"US","latitude":38.88863,"longitude":-77.00475,"distance":6528.602785373047,"distanceUnit":"K","oclcNumber":"1041839690"},{"oclcSymbol":"LNN","registryId":114986,"institutionName":"Library of Congress, Cataloging Directorate","institutionType":"REGIONAL_OR_NATIONAL","street1":"101 Independence Avenue, SE","city":"Washington","state":"US-DC","postalCode":"20540","country":"US","latitude":38.88697,"longitude":-77.00466,"distance":6528.719426450103,"distanceUnit":"K","oclcNumber":"1041839690"},{"oclcSymbol":"CGU","registryId":110147,"institutionName":"University of Chicago Library","institutionType":"ACADEMIC","street1":"1100 E. 57th Street","city":"Chicago","state":"US-IL","postalCode":"60637","country":"US","latitude":41.792255,"longitude":-87.599976,"distance":6968.537876102337,"distanceUnit":"K","oclcNumber":"1041839690"},{"oclcSymbol":"GZM","registryId":91572,"institutionName":"University of Wisconsin - Madison General Library System","institutionType":"ACADEMIC","street1":"Memorial Library","street2":"728 State Street","city":"Madison","state":"US-WI","postalCode":"53706","country":"US","latitude":43.075436,"longitude":-89.397865,"distance":6974.53449098745,"distanceUnit":"K","oclcNumber":"1041839690"},{"oclcSymbol":"NUI","registryId":57888,"institutionName":"University of Iowa Libraries","institutionType":"ACADEMIC","street1":"125 W Washington St.","city":"Iowa City","state":"US-IA","postalCode":"52242-1479","country":"US","latitude":41.659412,"longitude":-91.53811,"distance":7210.150876398513,"distanceUnit":"K","oclcNumber":"1041839690"},{"oclcSymbol":"COD","registryId":462,"institutionName":"University of Colorado Boulder","institutionType":"ACADEMIC","alsoCalled":"CU Boulder","street1":"184 UCB, 1720 Pleasant Street","city":"Boulder","state":"US-CO","postalCode":"80309-0184","country":"US","latitude":40.008705,"longitude":-105.27088,"distance":8106.375828967922,"distanceUnit":"K","oclcNumber":"1041839690"},{"oclcSymbol":"CNZJL","registryId":37796,"institutionName":"Zhejiang Library","institutionType":"ACADEMIC","street1":"73 Shunguang Rd","city":"Hangzhou","postalCode":"310007","country":"CN","latitude":30.252625,"longitude":120.16508,"distance":8829.489417753091,"distanceUnit":"K","oclcNumber":"1041839690"},{"oclcSymbol":"CUV","registryId":5697,"institutionName":"University of California, Davis","institutionType":"ACADEMIC","alsoCalled":"Shields Library","street1":"100 NW Quad","city":"Davis","state":"US-CA","postalCode":"95616-5292","country":"US","latitude":38.539604,"longitude":-121.749374,"distance":9029.526591310521,"distanceUnit":"K","oclcNumber":"1041839690"},{"oclcSymbol":"CUY","registryId":5689,"institutionName":"UC Berkeley Libraries","institutionType":"ACADEMIC","street1":"133 Doe Library","street2":"University of California","city":"Berkeley","state":"US-CA","postalCode":"94720-6000","country":"US","latitude":37.87575,"longitude":-122.24341,"distance":9115.023971148703,"distanceUnit":"K","oclcNumber":"1041839690"},{"oclcSymbol":"ZAS","registryId":5620,"institutionName":"University of California Los Angeles","institutionType":"ACADEMIC","alsoCalled":"Southern Regional Library Facility","street1":"Southern Regional Libr Fac","street2":"305 de Neve Drive, Box 951388","city":"Los Angeles","state":"US-CA","postalCode":"90095-1388","country":"US","latitude":34.05678,"longitude":-118.24259,"distance":9301.110233238789,"distanceUnit":"K","oclcNumber":"1041839690"},{"oclcSymbol":"CLU","registryId":207,"institutionName":"University of California, Los Angeles","institutionType":"ACADEMIC","street1":"280 Charles E. Young Dr.","city":"Los Angeles","state":"US-CA","postalCode":"90255","country":"US","latitude":34.07501,"longitude":-118.441185,"distance":9308.793889187069,"distanceUnit":"K","oclcNumber":"1041839690"},{"oclcSymbol":"L2U","registryId":53238,"institutionName":"Leiden University Libraries","institutionType":"ACADEMIC","alsoCalled":"Universitaire Bibliotheken Leiden","street1":"Witte Singel 27","city":"Leiden","postalCode":"2311 BG","country":"NL","latitude":52.157307,"longitude":4.481427,"distance":370.5077498902995,"distanceUnit":"K","oclcNumber":"1042496229"},{"oclcSymbol":"HUL","registryId":73876,"institutionName":"Harvard University","institutionType":"ACADEMIC","alsoCalled":"Harvard Library","street1":"Harvard University","city":"Cambridge","state":"US-MA","postalCode":"02138","country":"US","latitude":42.379486,"longitude":-71.11653,"distance":5898.670972048441,"distanceUnit":"K","oclcNumber":"1042496229"},{"oclcSymbol":"YUS","registryId":544,"institutionName":"Yale University Library","institutionType":"ACADEMIC","street1":"Sterling Mem Libr 130 Wall St","street2":"PO Box 208240","city":"New Haven","state":"US-CT","postalCode":"06520-8240","country":"US","latitude":41.309837,"longitude":-72.92811,"distance":6090.136001032786,"distanceUnit":"K","oclcNumber":"1042496229"},{"oclcSymbol":"ZCU","registryId":4861,"institutionName":"Columbia University in the City of New York","institutionType":"ACADEMIC","alsoCalled":"Columbia University Libraries","street1":"535 West 114th Street","city":"New York","state":"US-NY","postalCode":"10027-7035","country":"US","latitude":40.806236,"longitude":-73.96326,"distance":6192.750022328971,"distanceUnit":"K","oclcNumber":"1042496229"},{"oclcSymbol":"PUL","registryId":1791,"institutionName":"Princeton University Library","institutionType":"ACADEMIC","alsoCalled":"Firestone Library","street1":"1 Washington Rd","city":"Princeton","state":"US-NJ","postalCode":"08544-2098","country":"US","latitude":40.349854,"longitude":-74.65912,"distance":6270.382818212047,"distanceUnit":"K","oclcNumber":"1042496229"},{"oclcSymbol":"CNEAL","registryId":104498,"institutionName":"University of Toronto East Asian Library","institutionType":"ACADEMIC","street1":"130 St George St 8th Fl","city":"Toronto","state":"CA-ON","postalCode":"M5S 1A5","country":"CA","latitude":43.665096,"longitude":-79.399315,"distance":6332.484953290851,"distanceUnit":"K","oclcNumber":"1042496229"},{"oclcSymbol":"PAU","registryId":2583,"institutionName":"University of Pennsylvania Libraries","institutionType":"ACADEMIC","alsoCalled":"Penn Libraries","street1":"Library","street2":"3420 Walnut St","city":"Philadelphia","state":"US-PA","postalCode":"19104-6206","country":"US","latitude":39.952724,"longitude":-75.194,"distance":6333.612472191301,"distanceUnit":"K","oclcNumber":"1042496229"},{"oclcSymbol":"DLC","registryId":45266,"institutionName":"Library of Congress","institutionType":"REGIONAL_OR_NATIONAL","street1":"101 Independence Avenue, SE","city":"Washington","state":"US-DC","postalCode":"20540","country":"US","latitude":38.88863,"longitude":-77.00475,"distance":6528.602785373047,"distanceUnit":"K","oclcNumber":"1042496229"},{"oclcSymbol":"LNN","registryId":114986,"institutionName":"Library of Congress, Cataloging Directorate","institutionType":"REGIONAL_OR_NATIONAL","street1":"101 Independence Avenue, SE","city":"Washington","state":"US-DC","postalCode":"20540","country":"US","latitude":38.88697,"longitude":-77.00466,"distance":6528.719426450103,"distanceUnit":"K","oclcNumber":"1042496229"},{"oclcSymbol":"OBE","registryId":2304,"institutionName":"Oberlin College Libraries","institutionType":"ACADEMIC","street1":"148 West College Street","city":"Oberlin","state":"US-OH","postalCode":"44074-1532","country":"US","latitude":41.292927,"longitude":-82.2228,"distance":6680.410813469558,"distanceUnit":"K","oclcNumber":"1042496229"},{"oclcSymbol":"CGU","registryId":110147,"institutionName":"University of Chicago Library","institutionType":"ACADEMIC","street1":"1100 E. 57th Street","city":"Chicago","state":"US-IL","postalCode":"60637","country":"US","latitude":41.792255,"longitude":-87.599976,"distance":6968.537876102337,"distanceUnit":"K","oclcNumber":"1042496229"},{"oclcSymbol":"KKU","registryId":1094,"institutionName":"University of Kansas","institutionType":"ACADEMIC","alsoCalled":"KU Library","street1":"1425 Jayhawk Boulevard","city":"Lawrence","state":"US-KS","postalCode":"66045-7547","country":"US","latitude":38.95658,"longitude":-95.24484,"distance":7644.223667396426,"distanceUnit":"K","oclcNumber":"1042496229"},{"oclcSymbol":"CNZJL","registryId":37796,"institutionName":"Zhejiang Library","institutionType":"ACADEMIC","street1":"73 Shunguang Rd","city":"Hangzhou","postalCode":"310007","country":"CN","latitude":30.252625,"longitude":120.16508,"distance":8829.489417753091,"distanceUnit":"K","oclcNumber":"1042496229"},{"oclcSymbol":"CCHGZ","registryId":112222,"institutionName":"Hangzhou Public Library","institutionType":"PUBLIC","alsoCalled":"杭州图书馆","street1":"No 58 Jiefangdonglu","city":"Hangzhou，Zhejiang","postalCode":"310016","country":"CN","latitude":30.252625,"longitude":120.16508,"distance":8829.489417753091,"distanceUnit":"K","oclcNumber":"1042496229"},{"oclcSymbol":"CUY","registryId":5689,"institutionName":"UC Berkeley Libraries","institutionType":"ACADEMIC","street1":"133 Doe Library","street2":"University of California","city":"Berkeley","state":"US-CA","postalCode":"94720-6000","country":"US","latitude":37.87575,"longitude":-122.24341,"distance":9115.023971148703,"distanceUnit":"K","oclcNumber":"1042496229"},{"oclcSymbol":"STF","registryId":3227,"institutionName":"Stanford University Libraries","institutionType":"ACADEMIC","street1":"Green Library","street2":"Arguello Way","city":"Stanford","state":"US-CA","postalCode":"94305-6004","country":"US","latitude":37.43137,"longitude":-122.16892,"distance":9154.907042870153,"distanceUnit":"K","oclcNumber":"1042496229"},{"oclcSymbol":"ZAS","registryId":5620,"institutionName":"University of California Los Angeles","institutionType":"ACADEMIC","alsoCalled":"Southern Regional Library Facility","street1":"Southern Regional Libr Fac","street2":"305 de Neve Drive, Box 951388","city":"Los Angeles","state":"US-CA","postalCode":"90095-1388","country":"US","latitude":34.05678,"longitude":-118.24259,"distance":9301.110233238789,"distanceUnit":"K","oclcNumber":"1042496229"},{"oclcSymbol":"CLU","registryId":207,"institutionName":"University of California, Los Angeles","institutionType":"ACADEMIC","street1":"280 Charles E. Young Dr.","city":"Los Angeles","state":"US-CA","postalCode":"90255","country":"US","latitude":34.07501,"longitude":-118.441185,"distance":9308.793889187069,"distanceUnit":"K","oclcNumber":"1042496229"},{"oclcSymbol":"HUL","registryId":73876,"institutionName":"Harvard University","institutionType":"ACADEMIC","alsoCalled":"Harvard Library","street1":"Harvard University","city":"Cambridge","state":"US-MA","postalCode":"02138","country":"US","latitude":42.379486,"longitude":-71.11653,"distance":5898.670972048441,"distanceUnit":"K","oclcNumber":"1086357836"},{"oclcSymbol":"ZCU","registryId":4861,"institutionName":"Columbia University in the City of New York","institutionType":"ACADEMIC","alsoCalled":"Columbia University Libraries","street1":"535 West 114th Street","city":"New York","state":"US-NY","postalCode":"10027-7035","country":"US","latitude":40.806236,"longitude":-73.96326,"distance":6192.750022328971,"distanceUnit":"K","oclcNumber":"1086357836"},{"oclcSymbol":"COO","registryId":3913,"institutionName":"Cornell University Library","institutionType":"ACADEMIC","street1":"201 Olin Library","city":"Ithaca","state":"US-NY","postalCode":"14853-5301","country":"US","latitude":42.44667,"longitude":-76.495735,"distance":6238.384448048609,"distanceUnit":"K","oclcNumber":"1086357836"},{"oclcSymbol":"PUL","registryId":1791,"institutionName":"Princeton University Library","institutionType":"ACADEMIC","alsoCalled":"Firestone Library","street1":"1 Washington Rd","city":"Princeton","state":"US-NJ","postalCode":"08544-2098","country":"US","latitude":40.349854,"longitude":-74.65912,"distance":6270.382818212047,"distanceUnit":"K","oclcNumber":"1086357836"},{"oclcSymbol":"CNEAL","registryId":104498,"institutionName":"University of Toronto East Asian Library","institutionType":"ACADEMIC","street1":"130 St George St 8th Fl","city":"Toronto","state":"CA-ON","postalCode":"M5S 1A5","country":"CA","latitude":43.665096,"longitude":-79.399315,"distance":6332.484953290851,"distanceUnit":"K","oclcNumber":"1086357836"},{"oclcSymbol":"PAU","registryId":2583,"institutionName":"University of Pennsylvania Libraries","institutionType":"ACADEMIC","alsoCalled":"Penn Libraries","street1":"Library","street2":"3420 Walnut St","city":"Philadelphia","state":"US-PA","postalCode":"19104-6206","country":"US","latitude":39.952724,"longitude":-75.194,"distance":6333.612472191301,"distanceUnit":"K","oclcNumber":"1086357836"},{"oclcSymbol":"DLC","registryId":45266,"institutionName":"Library of Congress","institutionType":"REGIONAL_OR_NATIONAL","street1":"101 Independence Avenue, SE","city":"Washington","state":"US-DC","postalCode":"20540","country":"US","latitude":38.88863,"longitude":-77.00475,"distance":6528.602785373047,"distanceUnit":"K","oclcNumber":"1086357836"},{"oclcSymbol":"LNN","registryId":114986,"institutionName":"Library of Congress, Cataloging Directorate","institutionType":"REGIONAL_OR_NATIONAL","street1":"101 Independence Avenue, SE","city":"Washington","state":"US-DC","postalCode":"20540","country":"US","latitude":38.88697,"longitude":-77.00466,"distance":6528.719426450103,"distanceUnit":"K","oclcNumber":"1086357836"},{"oclcSymbol":"CGU","registryId":110147,"institutionName":"University of Chicago Library","institutionType":"ACADEMIC","street1":"1100 E. 57th Street","city":"Chicago","state":"US-IL","postalCode":"60637","country":"US","latitude":41.792255,"longitude":-87.599976,"distance":6968.537876102337,"distanceUnit":"K","oclcNumber":"1086357836"},{"oclcSymbol":"GZM","registryId":91572,"institutionName":"University of Wisconsin - Madison General Library System","institutionType":"ACADEMIC","street1":"Memorial Library","street2":"728 State Street","city":"Madison","state":"US-WI","postalCode":"53706","country":"US","latitude":43.075436,"longitude":-89.397865,"distance":6974.53449098745,"distanceUnit":"K","oclcNumber":"1086357836"},{"oclcSymbol":"NUI","registryId":57888,"institutionName":"University of Iowa Libraries","institutionType":"ACADEMIC","street1":"125 W Washington St.","city":"Iowa City","state":"US-IA","postalCode":"52242-1479","country":"US","latitude":41.659412,"longitude":-91.53811,"distance":7210.150876398513,"distanceUnit":"K","oclcNumber":"1086357836"},{"oclcSymbol":"WTU","registryId":1724,"institutionName":"Washington University in St. Louis","institutionType":"ACADEMIC","alsoCalled":".","street1":"One Brookings Drive, MSC 1061-141-B","city":"St. Louis","state":"US-MO","postalCode":"63130","country":"US","latitude":38.648453,"longitude":-90.307724,"distance":7378.5450160625,"distanceUnit":"K","oclcNumber":"1086357836"},{"oclcSymbol":"VT2","registryId":67224,"institutionName":"University of Victoria Libraries","institutionType":"ACADEMIC","alsoCalled":"UVic McPherson Library","street1":"3800 Finnerty Road","city":"Victoria","state":"CA-BC","postalCode":"V8P 5C2","country":"CA","latitude":48.4633,"longitude":-123.30975,"distance":8133.047884945729,"distanceUnit":"K","oclcNumber":"1086357836"},{"oclcSymbol":"CNZJL","registryId":37796,"institutionName":"Zhejiang Library","institutionType":"ACADEMIC","street1":"73 Shunguang Rd","city":"Hangzhou","postalCode":"310007","country":"CN","latitude":30.252625,"longitude":120.16508,"distance":8829.489417753091,"distanceUnit":"K","oclcNumber":"1086357836"},{"oclcSymbol":"CUY","registryId":5689,"institutionName":"UC Berkeley Libraries","institutionType":"ACADEMIC","street1":"133 Doe Library","street2":"University of California","city":"Berkeley","state":"US-CA","postalCode":"94720-6000","country":"US","latitude":37.87575,"longitude":-122.24341,"distance":9115.023971148703,"distanceUnit":"K","oclcNumber":"1086357836"},{"oclcSymbol":"STF","registryId":3227,"institutionName":"Stanford University Libraries","institutionType":"ACADEMIC","street1":"Green Library","street2":"Arguello Way","city":"Stanford","state":"US-CA","postalCode":"94305-6004","country":"US","latitude":37.43137,"longitude":-122.16892,"distance":9154.907042870153,"distanceUnit":"K","oclcNumber":"1086357836"},{"oclcSymbol":"CLU","registryId":207,"institutionName":"University of California, Los Angeles","institutionType":"ACADEMIC","street1":"280 Charles E. Young Dr.","city":"Los Angeles","state":"US-CA","postalCode":"90255","country":"US","latitude":34.07501,"longitude":-118.441185,"distance":9308.793889187069,"distanceUnit":"K","oclcNumber":"1086357836"},{"oclcSymbol":"GEBAY","registryId":39230,"institutionName":"Bayerische Staatsbibliothek","institutionType":"REGIONAL_OR_NATIONAL","street1":"Ludwigstr. 16","city":"München","postalCode":"80539","country":"DE","latitude":48.146862,"longitude":11.580282,"distance":304.03454317730603,"distanceUnit":"K","oclcNumber":"1086341603"},{"oclcSymbol":"HUL","registryId":73876,"institutionName":"Harvard University","institutionType":"ACADEMIC","alsoCalled":"Harvard Library","street1":"Harvard University","city":"Cambridge","state":"US-MA","postalCode":"02138","country":"US","latitude":42.379486,"longitude":-71.11653,"distance":5898.670972048441,"distanceUnit":"K","oclcNumber":"1086341603"},{"oclcSymbol":"ZCU","registryId":4861,"institutionName":"Columbia University in the City of New York","institutionType":"ACADEMIC","alsoCalled":"Columbia University Libraries","street1":"535 West 114th Street","city":"New York","state":"US-NY","postalCode":"10027-7035","country":"US","latitude":40.806236,"longitude":-73.96326,"distance":6192.750022328971,"distanceUnit":"K","oclcNumber":"1086341603"},{"oclcSymbol":"ZYU","registryId":1976,"institutionName":"New York University","institutionType":"ACADEMIC","alsoCalled":"Elmer Holmes Bobst Library","street1":"70 Washington Square South","city":"New York","state":"US-NY","postalCode":"10012","country":"US","latitude":40.729427,"longitude":-73.99722,"distance":6200.4045332524265,"distanceUnit":"K","oclcNumber":"1086341603"},{"oclcSymbol":"PUL","registryId":1791,"institutionName":"Princeton University Library","institutionType":"ACADEMIC","alsoCalled":"Firestone Library","street1":"1 Washington Rd","city":"Princeton","state":"US-NJ","postalCode":"08544-2098","country":"US","latitude":40.349854,"longitude":-74.65912,"distance":6270.382818212047,"distanceUnit":"K","oclcNumber":"1086341603"},{"oclcSymbol":"DLC","registryId":45266,"institutionName":"Library of Congress","institutionType":"REGIONAL_OR_NATIONAL","street1":"101 Independence Avenue, SE","city":"Washington","state":"US-DC","postalCode":"20540","country":"US","latitude":38.88863,"longitude":-77.00475,"distance":6528.602785373047,"distanceUnit":"K","oclcNumber":"1086341603"},{"oclcSymbol":"LNN","registryId":114986,"institutionName":"Library of Congress, Cataloging Directorate","institutionType":"REGIONAL_OR_NATIONAL","street1":"101 Independence Avenue, SE","city":"Washington","state":"US-DC","postalCode":"20540","country":"US","latitude":38.88697,"longitude":-77.00466,"distance":6528.719426450103,"distanceUnit":"K","oclcNumber":"1086341603"},{"oclcSymbol":"CGU","registryId":110147,"institutionName":"University of Chicago Library","institutionType":"ACADEMIC","street1":"1100 E. 57th Street","city":"Chicago","state":"US-IL","postalCode":"60637","country":"US","latitude":41.792255,"longitude":-87.599976,"distance":6968.537876102337,"distanceUnit":"K","oclcNumber":"1086341603"},{"oclcSymbol":"NUI","registryId":57888,"institutionName":"University of Iowa Libraries","institutionType":"ACADEMIC","street1":"125 W Washington St.","city":"Iowa City","state":"US-IA","postalCode":"52242-1479","country":"US","latitude":41.659412,"longitude":-91.53811,"distance":7210.150876398513,"distanceUnit":"K","oclcNumber":"1086341603"},{"oclcSymbol":"UBC","registryId":65595,"institutionName":"University of British Columbia Library","institutionType":"ACADEMIC","street1":"Irving K. Barber Learning Centre","street2":"1956 Main Mall","city":"Vancouver","state":"CA-BC","postalCode":"V6T 1Z1","country":"CA","latitude":49.267506,"longitude":-123.25255,"distance":8053.47483756799,"distanceUnit":"K","oclcNumber":"1086341603"},{"oclcSymbol":"WAU","registryId":5725,"institutionName":"University of Washington Libraries","institutionType":"ACADEMIC","street1":"Box 352900","city":"Seattle","state":"US-WA","postalCode":"98195-2900","country":"US","latitude":47.65368,"longitude":-122.29911,"distance":8173.278736712033,"distanceUnit":"K","oclcNumber":"1086341603"},{"oclcSymbol":"STF","registryId":3227,"institutionName":"Stanford University Libraries","institutionType":"ACADEMIC","street1":"Green Library","street2":"Arguello Way","city":"Stanford","state":"US-CA","postalCode":"94305-6004","country":"US","latitude":37.43137,"longitude":-122.16892,"distance":9154.907042870153,"distanceUnit":"K","oclcNumber":"1086341603"},{"oclcSymbol":"ZAS","registryId":5620,"institutionName":"University of California Los Angeles","institutionType":"ACADEMIC","alsoCalled":"Southern Regional Library Facility","street1":"Southern Regional Libr Fac","street2":"305 de Neve Drive, Box 951388","city":"Los Angeles","state":"US-CA","postalCode":"90095-1388","country":"US","latitude":34.05678,"longitude":-118.24259,"distance":9301.110233238789,"distanceUnit":"K","oclcNumber":"1086341603"},{"oclcSymbol":"CLU","registryId":207,"institutionName":"University of California, Los Angeles","institutionType":"ACADEMIC","street1":"280 Charles E. Young Dr.","city":"Los Angeles","state":"US-CA","postalCode":"90255","country":"US","latitude":34.07501,"longitude":-118.441185,"distance":9308.793889187069,"distanceUnit":"K","oclcNumber":"1086341603"},{"oclcSymbol":"SINLB","registryId":63464,"institutionName":"National Library Board, Singapore","institutionType":"REGIONAL_OR_NATIONAL","street1":"National Library Board,","street2":"100 Victoria Street, #14-01, National Library Building","city":"Singapore","postalCode":"188064","country":"SG","latitude":1.297366,"longitude":103.85384,"distance":10264.410371761638,"distanceUnit":"K","oclcNumber":"1086341603"},{"oclcSymbol":"HUH","registryId":760,"institutionName":"University of Hawaii at Manoa","institutionType":"ACADEMIC","alsoCalled":"Hamilton Library","street1":"Hamilton Library","street2":"2550 McCarthy Mall","city":"Honolulu","state":"US-HI","postalCode":"96822","country":"US","latitude":21.300537,"longitude":-157.81621,"distance":11962.425698979041,"distanceUnit":"K","oclcNumber":"1086341603"},{"oclcSymbol":"HUL","registryId":73876,"institutionName":"Harvard University","institutionType":"ACADEMIC","alsoCalled":"Harvard Library","street1":"Harvard University","city":"Cambridge","state":"US-MA","postalCode":"02138","country":"US","latitude":42.379486,"longitude":-71.11653,"distance":5898.670972048441,"distanceUnit":"K","oclcNumber":"1083305321"},{"oclcSymbol":"YUS","registryId":544,"institutionName":"Yale University Library","institutionType":"ACADEMIC","street1":"Sterling Mem Libr 130 Wall St","street2":"PO Box 208240","city":"New Haven","state":"US-CT","postalCode":"06520-8240","country":"US","latitude":41.309837,"longitude":-72.92811,"distance":6090.136001032786,"distanceUnit":"K","oclcNumber":"1083305321"},{"oclcSymbol":"ZCU","registryId":4861,"institutionName":"Columbia University in the City of New York","institutionType":"ACADEMIC","alsoCalled":"Columbia University Libraries","street1":"535 West 114th Street","city":"New York","state":"US-NY","postalCode":"10027-7035","country":"US","latitude":40.806236,"longitude":-73.96326,"distance":6192.750022328971,"distanceUnit":"K","oclcNumber":"1083305321"},{"oclcSymbol":"COO","registryId":3913,"institutionName":"Cornell University Library","institutionType":"ACADEMIC","street1":"201 Olin Library","city":"Ithaca","state":"US-NY","postalCode":"14853-5301","country":"US","latitude":42.44667,"longitude":-76.495735,"distance":6238.384448048609,"distanceUnit":"K","oclcNumber":"1083305321"},{"oclcSymbol":"DLC","registryId":45266,"institutionName":"Library of Congress","institutionType":"REGIONAL_OR_NATIONAL","street1":"101 Independence Avenue, SE","city":"Washington","state":"US-DC","postalCode":"20540","country":"US","latitude":38.88863,"longitude":-77.00475,"distance":6528.602785373047,"distanceUnit":"K","oclcNumber":"1083305321"},{"oclcSymbol":"LNN","registryId":114986,"institutionName":"Library of Congress, Cataloging Directorate","institutionType":"REGIONAL_OR_NATIONAL","street1":"101 Independence Avenue, SE","city":"Washington","state":"US-DC","postalCode":"20540","country":"US","latitude":38.88697,"longitude":-77.00466,"distance":6528.719426450103,"distanceUnit":"K","oclcNumber":"1083305321"},{"oclcSymbol":"CGU","registryId":110147,"institutionName":"University of Chicago Library","institutionType":"ACADEMIC","street1":"1100 E. 57th Street","city":"Chicago","state":"US-IL","postalCode":"60637","country":"US","latitude":41.792255,"longitude":-87.599976,"distance":6968.537876102337,"distanceUnit":"K","oclcNumber":"1083305321"},{"oclcSymbol":"GZM","registryId":91572,"institutionName":"University of Wisconsin - Madison General Library System","institutionType":"ACADEMIC","street1":"Memorial Library","street2":"728 State Street","city":"Madison","state":"US-WI","postalCode":"53706","country":"US","latitude":43.075436,"longitude":-89.397865,"distance":6974.53449098745,"distanceUnit":"K","oclcNumber":"1083305321"},{"oclcSymbol":"MNU","registryId":5360,"institutionName":"University of Minnesota, Twin Cities","institutionType":"ACADEMIC","street1":"499 Wilson Libr","street2":"309 19th Ave S","city":"Minneapolis","state":"US-MN","postalCode":"55455-0414","country":"US","latitude":44.976074,"longitude":-93.23086,"distance":7042.418768240276,"distanceUnit":"K","oclcNumber":"1083305321"},{"oclcSymbol":"WTU","registryId":1724,"institutionName":"Washington University in St. Louis","institutionType":"ACADEMIC","alsoCalled":".","street1":"One Brookings Drive, MSC 1061-141-B","city":"St. Louis","state":"US-MO","postalCode":"63130","country":"US","latitude":38.648453,"longitude":-90.307724,"distance":7378.5450160625,"distanceUnit":"K","oclcNumber":"1083305321"},{"oclcSymbol":"CNZJL","registryId":37796,"institutionName":"Zhejiang Library","institutionType":"ACADEMIC","street1":"73 Shunguang Rd","city":"Hangzhou","postalCode":"310007","country":"CN","latitude":30.252625,"longitude":120.16508,"distance":8829.489417753091,"distanceUnit":"K","oclcNumber":"1083305321"},{"oclcSymbol":"CUY","registryId":5689,"institutionName":"UC Berkeley Libraries","institutionType":"ACADEMIC","street1":"133 Doe Library","street2":"University of California","city":"Berkeley","state":"US-CA","postalCode":"94720-6000","country":"US","latitude":37.87575,"longitude":-122.24341,"distance":9115.023971148703,"distanceUnit":"K","oclcNumber":"1083305321"},{"oclcSymbol":"STF","registryId":3227,"institutionName":"Stanford University Libraries","institutionType":"ACADEMIC","street1":"Green Library","street2":"Arguello Way","city":"Stanford","state":"US-CA","postalCode":"94305-6004","country":"US","latitude":37.43137,"longitude":-122.16892,"distance":9154.907042870153,"distanceUnit":"K","oclcNumber":"1083305321"},{"oclcSymbol":"CUI","registryId":5656,"institutionName":"University of California, Irvine","institutionType":"ACADEMIC","alsoCalled":"Langson Library","street1":"Univ of California Irvine","city":"Irvine","state":"US-CA","postalCode":"92697","country":"US","latitude":33.647266,"longitude":-117.841034,"distance":9320.915822937264,"distanceUnit":"K","oclcNumber":"1083305321"},{"oclcSymbol":"AUT","registryId":40260,"institutionName":"National Library of Australia","institutionType":"REGIONAL_OR_NATIONAL","street1":"Parkes Place","city":"Canberra","state":"AU-CT","postalCode":"2600","country":"AU","latitude":-35.29652,"longitude":149.12935,"distance":16442.15007078913,"distanceUnit":"K","oclcNumber":"1083305321"},{"oclcSymbol":"HUL","registryId":73876,"institutionName":"Harvard University","institutionType":"ACADEMIC","alsoCalled":"Harvard Library","street1":"Harvard University","city":"Cambridge","state":"US-MA","postalCode":"02138","country":"US","latitude":42.379486,"longitude":-71.11653,"distance":5898.670972048441,"distanceUnit":"K","oclcNumber":"1090475815"},{"oclcSymbol":"ZCU","registryId":4861,"institutionName":"Columbia University in the City of New York","institutionType":"ACADEMIC","alsoCalled":"Columbia University Libraries","street1":"535 West 114th Street","city":"New York","state":"US-NY","postalCode":"10027-7035","country":"US","latitude":40.806236,"longitude":-73.96326,"distance":6192.750022328971,"distanceUnit":"K","oclcNumber":"1090475815"},{"oclcSymbol":"ZYU","registryId":1976,"institutionName":"New York University","institutionType":"ACADEMIC","alsoCalled":"Elmer Holmes Bobst Library","street1":"70 Washington Square South","city":"New York","state":"US-NY","postalCode":"10012","country":"US","latitude":40.729427,"longitude":-73.99722,"distance":6200.4045332524265,"distanceUnit":"K","oclcNumber":"1090475815"},{"oclcSymbol":"CNEAL","registryId":104498,"institutionName":"University of Toronto East Asian Library","institutionType":"ACADEMIC","street1":"130 St George St 8th Fl","city":"Toronto","state":"CA-ON","postalCode":"M5S 1A5","country":"CA","latitude":43.665096,"longitude":-79.399315,"distance":6332.484953290851,"distanceUnit":"K","oclcNumber":"1090475815"},{"oclcSymbol":"PAU","registryId":2583,"institutionName":"University of Pennsylvania Libraries","institutionType":"ACADEMIC","alsoCalled":"Penn Libraries","street1":"Library","street2":"3420 Walnut St","city":"Philadelphia","state":"US-PA","postalCode":"19104-6206","country":"US","latitude":39.952724,"longitude":-75.194,"distance":6333.612472191301,"distanceUnit":"K","oclcNumber":"1090475815"},{"oclcSymbol":"DLC","registryId":45266,"institutionName":"Library of Congress","institutionType":"REGIONAL_OR_NATIONAL","street1":"101 Independence Avenue, SE","city":"Washington","state":"US-DC","postalCode":"20540","country":"US","latitude":38.88863,"longitude":-77.00475,"distance":6528.602785373047,"distanceUnit":"K","oclcNumber":"1090475815"},{"oclcSymbol":"LNN","registryId":114986,"institutionName":"Library of Congress, Cataloging Directorate","institutionType":"REGIONAL_OR_NATIONAL","street1":"101 Independence Avenue, SE","city":"Washington","state":"US-DC","postalCode":"20540","country":"US","latitude":38.88697,"longitude":-77.00466,"distance":6528.719426450103,"distanceUnit":"K","oclcNumber":"1090475815"},{"oclcSymbol":"CGU","registryId":110147,"institutionName":"University of Chicago Library","institutionType":"ACADEMIC","street1":"1100 E. 57th Street","city":"Chicago","state":"US-IL","postalCode":"60637","country":"US","latitude":41.792255,"longitude":-87.599976,"distance":6968.537876102337,"distanceUnit":"K","oclcNumber":"1090475815"},{"oclcSymbol":"UAB","registryId":65567,"institutionName":"University of Alberta","institutionType":"ACADEMIC","alsoCalled":"University of Alberta Library","street1":"5-02 Cameron Libr","city":"Edmonton","state":"CA-AB","postalCode":"T6G 2J8","country":"CA","latitude":53.526733,"longitude":-113.52361,"distance":7288.342749133143,"distanceUnit":"K","oclcNumber":"1090475815"},{"oclcSymbol":"EMU","registryId":699,"institutionName":"Emory University","institutionType":"ACADEMIC","alsoCalled":"Robert W. Woodruff Library (Woodruff Main Library)","street1":"Robert W. Woodruff Library","street2":"540 Asbury Circle, NE","city":"Atlanta","state":"US-GA","postalCode":"30322","country":"US","latitude":33.79044,"longitude":-84.32282,"distance":7393.571775966326,"distanceUnit":"K","oclcNumber":"1090475815"},{"oclcSymbol":"CNZJL","registryId":37796,"institutionName":"Zhejiang Library","institutionType":"ACADEMIC","street1":"73 Shunguang Rd","city":"Hangzhou","postalCode":"310007","country":"CN","latitude":30.252625,"longitude":120.16508,"distance":8829.489417753091,"distanceUnit":"K","oclcNumber":"1090475815"},{"oclcSymbol":"CUV","registryId":5697,"institutionName":"University of California, Davis","institutionType":"ACADEMIC","alsoCalled":"Shields Library","street1":"100 NW Quad","city":"Davis","state":"US-CA","postalCode":"95616-5292","country":"US","latitude":38.539604,"longitude":-121.749374,"distance":9029.526591310521,"distanceUnit":"K","oclcNumber":"1090475815"},{"oclcSymbol":"CUY","registryId":5689,"institutionName":"UC Berkeley Libraries","institutionType":"ACADEMIC","street1":"133 Doe Library","street2":"University of California","city":"Berkeley","state":"US-CA","postalCode":"94720-6000","country":"US","latitude":37.87575,"longitude":-122.24341,"distance":9115.023971148703,"distanceUnit":"K","oclcNumber":"1090475815"},{"oclcSymbol":"HUL","registryId":73876,"institutionName":"Harvard University","institutionType":"ACADEMIC","alsoCalled":"Harvard Library","street1":"Harvard University","city":"Cambridge","state":"US-MA","postalCode":"02138","country":"US","latitude":42.379486,"longitude":-71.11653,"distance":5898.670972048441,"distanceUnit":"K","oclcNumber":"1080427294"},{"oclcSymbol":"ZCU","registryId":4861,"institutionName":"Columbia University in the City of New York","institutionType":"ACADEMIC","alsoCalled":"Columbia University Libraries","street1":"535 West 114th Street","city":"New York","state":"US-NY","postalCode":"10027-7035","country":"US","latitude":40.806236,"longitude":-73.96326,"distance":6192.750022328971,"distanceUnit":"K","oclcNumber":"1080427294"},{"oclcSymbol":"COO","registryId":3913,"institutionName":"Cornell University Library","institutionType":"ACADEMIC","street1":"201 Olin Library","city":"Ithaca","state":"US-NY","postalCode":"14853-5301","country":"US","latitude":42.44667,"longitude":-76.495735,"distance":6238.384448048609,"distanceUnit":"K","oclcNumber":"1080427294"},{"oclcSymbol":"PUL","registryId":1791,"institutionName":"Princeton University Library","institutionType":"ACADEMIC","alsoCalled":"Firestone Library","street1":"1 Washington Rd","city":"Princeton","state":"US-NJ","postalCode":"08544-2098","country":"US","latitude":40.349854,"longitude":-74.65912,"distance":6270.382818212047,"distanceUnit":"K","oclcNumber":"1080427294"},{"oclcSymbol":"PAU","registryId":2583,"institutionName":"University of Pennsylvania Libraries","institutionType":"ACADEMIC","alsoCalled":"Penn Libraries","street1":"Library","street2":"3420 Walnut St","city":"Philadelphia","state":"US-PA","postalCode":"19104-6206","country":"US","latitude":39.952724,"longitude":-75.194,"distance":6333.612472191301,"distanceUnit":"K","oclcNumber":"1080427294"},{"oclcSymbol":"DLC","registryId":45266,"institutionName":"Library of Congress","institutionType":"REGIONAL_OR_NATIONAL","street1":"101 Independence Avenue, SE","city":"Washington","state":"US-DC","postalCode":"20540","country":"US","latitude":38.88863,"longitude":-77.00475,"distance":6528.602785373047,"distanceUnit":"K","oclcNumber":"1080427294"},{"oclcSymbol":"LNN","registryId":114986,"institutionName":"Library of Congress, Cataloging Directorate","institutionType":"REGIONAL_OR_NATIONAL","street1":"101 Independence Avenue, SE","city":"Washington","state":"US-DC","postalCode":"20540","country":"US","latitude":38.88697,"longitude":-77.00466,"distance":6528.719426450103,"distanceUnit":"K","oclcNumber":"1080427294"},{"oclcSymbol":"CGU","registryId":110147,"institutionName":"University of Chicago Library","institutionType":"ACADEMIC","street1":"1100 E. 57th Street","city":"Chicago","state":"US-IL","postalCode":"60637","country":"US","latitude":41.792255,"longitude":-87.599976,"distance":6968.537876102337,"distanceUnit":"K","oclcNumber":"1080427294"},{"oclcSymbol":"UAB","registryId":65567,"institutionName":"University of Alberta","institutionType":"ACADEMIC","alsoCalled":"University of Alberta Library","street1":"5-02 Cameron Libr","city":"Edmonton","state":"CA-AB","postalCode":"T6G 2J8","country":"CA","latitude":53.526733,"longitude":-113.52361,"distance":7288.342749133143,"distanceUnit":"K","oclcNumber":"1080427294"},{"oclcSymbol":"WAU","registryId":5725,"institutionName":"University of Washington Libraries","institutionType":"ACADEMIC","street1":"Box 352900","city":"Seattle","state":"US-WA","postalCode":"98195-2900","country":"US","latitude":47.65368,"longitude":-122.29911,"distance":8173.278736712033,"distanceUnit":"K","oclcNumber":"1080427294"},{"oclcSymbol":"CNZJL","registryId":37796,"institutionName":"Zhejiang Library","institutionType":"ACADEMIC","street1":"73 Shunguang Rd","city":"Hangzhou","postalCode":"310007","country":"CN","latitude":30.252625,"longitude":120.16508,"distance":8829.489417753091,"distanceUnit":"K","oclcNumber":"1080427294"},{"oclcSymbol":"ZAS","registryId":5620,"institutionName":"University of California Los Angeles","institutionType":"ACADEMIC","alsoCalled":"Southern Regional Library Facility","street1":"Southern Regional Libr Fac","street2":"305 de Neve Drive, Box 951388","city":"Los Angeles","state":"US-CA","postalCode":"90095-1388","country":"US","latitude":34.05678,"longitude":-118.24259,"distance":9301.110233238789,"distanceUnit":"K","oclcNumber":"1080427294"},{"oclcSymbol":"CLU","registryId":207,"institutionName":"University of California, Los Angeles","institutionType":"ACADEMIC","street1":"280 Charles E. Young Dr.","city":"Los Angeles","state":"US-CA","postalCode":"90255","country":"US","latitude":34.07501,"longitude":-118.441185,"distance":9308.793889187069,"distanceUnit":"K","oclcNumber":"1080427294"},{"oclcSymbol":"YUS","registryId":544,"institutionName":"Yale University Library","institutionType":"ACADEMIC","street1":"Sterling Mem Libr 130 Wall St","street2":"PO Box 208240","city":"New Haven","state":"US-CT","postalCode":"06520-8240","country":"US","latitude":41.309837,"longitude":-72.92811,"distance":6090.136001032786,"distanceUnit":"K","oclcNumber":"1041839677"},{"oclcSymbol":"ZCU","registryId":4861,"institutionName":"Columbia University in the City of New York","institutionType":"ACADEMIC","alsoCalled":"Columbia University Libraries","street1":"535 West 114th Street","city":"New York","state":"US-NY","postalCode":"10027-7035","country":"US","latitude":40.806236,"longitude":-73.96326,"distance":6192.750022328971,"distanceUnit":"K","oclcNumber":"1041839677"},{"oclcSymbol":"BNG","registryId":2031,"institutionName":"State University of New York, Binghamton University Libraries","institutionType":"ACADEMIC","alsoCalled":"Glenn G. Bartle Library","street1":"Vestal Pky E","street2":"PO Box 6012","city":"Binghamton","state":"US-NY","postalCode":"13902-6012","country":"US","latitude":42.08883,"longitude":-75.96697,"distance":6230.293280084618,"distanceUnit":"K","oclcNumber":"1041839677"},{"oclcSymbol":"COO","registryId":3913,"institutionName":"Cornell University Library","institutionType":"ACADEMIC","street1":"201 Olin Library","city":"Ithaca","state":"US-NY","postalCode":"14853-5301","country":"US","latitude":42.44667,"longitude":-76.495735,"distance":6238.384448048609,"distanceUnit":"K","oclcNumber":"1041839677"},{"oclcSymbol":"PUL","registryId":1791,"institutionName":"Princeton University Library","institutionType":"ACADEMIC","alsoCalled":"Firestone Library","street1":"1 Washington Rd","city":"Princeton","state":"US-NJ","postalCode":"08544-2098","country":"US","latitude":40.349854,"longitude":-74.65912,"distance":6270.382818212047,"distanceUnit":"K","oclcNumber":"1041839677"},{"oclcSymbol":"DLC","registryId":45266,"institutionName":"Library of Congress","institutionType":"REGIONAL_OR_NATIONAL","street1":"101 Independence Avenue, SE","city":"Washington","state":"US-DC","postalCode":"20540","country":"US","latitude":38.88863,"longitude":-77.00475,"distance":6528.602785373047,"distanceUnit":"K","oclcNumber":"1041839677"},{"oclcSymbol":"LNN","registryId":114986,"institutionName":"Library of Congress, Cataloging Directorate","institutionType":"REGIONAL_OR_NATIONAL","street1":"101 Independence Avenue, SE","city":"Washington","state":"US-DC","postalCode":"20540","country":"US","latitude":38.88697,"longitude":-77.00466,"distance":6528.719426450103,"distanceUnit":"K","oclcNumber":"1041839677"},{"oclcSymbol":"OSU","registryId":2315,"institutionName":"Ohio State University Libraries","institutionType":"ACADEMIC","street1":"1858 Neil Avenue","city":"Columbus","state":"US-OH","postalCode":"43210","country":"US","latitude":39.99908,"longitude":-83.01568,"distance":6827.137620801146,"distanceUnit":"K","oclcNumber":"1041839677"},{"oclcSymbol":"CGU","registryId":110147,"institutionName":"University of Chicago Library","institutionType":"ACADEMIC","street1":"1100 E. 57th Street","city":"Chicago","state":"US-IL","postalCode":"60637","country":"US","latitude":41.792255,"longitude":-87.599976,"distance":6968.537876102337,"distanceUnit":"K","oclcNumber":"1041839677"},{"oclcSymbol":"IUL","registryId":5279,"institutionName":"Indiana University","institutionType":"ACADEMIC","street1":"1320 East 10th Street","city":"Bloomington","state":"US-IN","postalCode":"47405-3907","country":"US","latitude":39.17216,"longitude":-86.52552,"distance":7107.579529722649,"distanceUnit":"K","oclcNumber":"1041839677"},{"oclcSymbol":"CUY","registryId":5689,"institutionName":"UC Berkeley Libraries","institutionType":"ACADEMIC","street1":"133 Doe Library","street2":"University of California","city":"Berkeley","state":"US-CA","postalCode":"94720-6000","country":"US","latitude":37.87575,"longitude":-122.24341,"distance":9115.023971148703,"distanceUnit":"K","oclcNumber":"1041839677"},{"oclcSymbol":"HDC","registryId":5640,"institutionName":"The Claremont Colleges","institutionType":"ACADEMIC","alsoCalled":"The Claremont Colleges Library","street1":"Honnold/Mudd Library","street2":"800 N Dartmouth Ave","city":"Claremont","state":"US-CA","postalCode":"91711-3907","country":"US","latitude":34.10182,"longitude":-117.71262,"distance":9271.560004359686,"distanceUnit":"K","oclcNumber":"1041839677"},{"oclcSymbol":"CLU","registryId":207,"institutionName":"University of California, Los Angeles","institutionType":"ACADEMIC","street1":"280 Charles E. Young Dr.","city":"Los Angeles","state":"US-CA","postalCode":"90255","country":"US","latitude":34.07501,"longitude":-118.441185,"distance":9308.793889187069,"distanceUnit":"K","oclcNumber":"1041839677"},{"oclcSymbol":"ZYU","registryId":1976,"institutionName":"New York University","institutionType":"ACADEMIC","alsoCalled":"Elmer Holmes Bobst Library","street1":"70 Washington Square South","city":"New York","state":"US-NY","postalCode":"10012","country":"US","latitude":40.729427,"longitude":-73.99722,"distance":6200.4045332524265,"distanceUnit":"K","oclcNumber":"1102413251"},{"oclcSymbol":"PUL","registryId":1791,"institutionName":"Princeton University Library","institutionType":"ACADEMIC","alsoCalled":"Firestone Library","street1":"1 Washington Rd","city":"Princeton","state":"US-NJ","postalCode":"08544-2098","country":"US","latitude":40.349854,"longitude":-74.65912,"distance":6270.382818212047,"distanceUnit":"K","oclcNumber":"1102413251"},{"oclcSymbol":"DLC","registryId":45266,"institutionName":"Library of Congress","institutionType":"REGIONAL_OR_NATIONAL","street1":"101 Independence Avenue, SE","city":"Washington","state":"US-DC","postalCode":"20540","country":"US","latitude":38.88863,"longitude":-77.00475,"distance":6528.602785373047,"distanceUnit":"K","oclcNumber":"1102413251"},{"oclcSymbol":"LNN","registryId":114986,"institutionName":"Library of Congress, Cataloging Directorate","institutionType":"REGIONAL_OR_NATIONAL","street1":"101 Independence Avenue, SE","city":"Washington","state":"US-DC","postalCode":"20540","country":"US","latitude":38.88697,"longitude":-77.00466,"distance":6528.719426450103,"distanceUnit":"K","oclcNumber":"1102413251"},{"oclcSymbol":"WAU","registryId":5725,"institutionName":"University of Washington Libraries","institutionType":"ACADEMIC","street1":"Box 352900","city":"Seattle","state":"US-WA","postalCode":"98195-2900","country":"US","latitude":47.65368,"longitude":-122.29911,"distance":8173.278736712033,"distanceUnit":"K","oclcNumber":"1102413251"},{"oclcSymbol":"CUY","registryId":5689,"institutionName":"UC Berkeley Libraries","institutionType":"ACADEMIC","street1":"133 Doe Library","street2":"University of California","city":"Berkeley","state":"US-CA","postalCode":"94720-6000","country":"US","latitude":37.87575,"longitude":-122.24341,"distance":9115.023971148703,"distanceUnit":"K","oclcNumber":"1102413251"},{"oclcSymbol":"STF","registryId":3227,"institutionName":"Stanford University Libraries","institutionType":"ACADEMIC","street1":"Green Library","street2":"Arguello Way","city":"Stanford","state":"US-CA","postalCode":"94305-6004","country":"US","latitude":37.43137,"longitude":-122.16892,"distance":9154.907042870153,"distanceUnit":"K","oclcNumber":"1102413251"},{"oclcSymbol":"LOA","registryId":53921,"institutionName":"SOAS University of London","institutionType":"ACADEMIC","alsoCalled":"University of London, School of Oriental and African Studies","street1":"Thornhaugh Street","street2":"Russell Square","city":"London","postalCode":"WC1H 0XG","country":"GB","latitude":51.52235,"longitude":-0.129275,"distance":638.0296394410018,"distanceUnit":"K","oclcNumber":"1088570224"},{"oclcSymbol":"HUL","registryId":73876,"institutionName":"Harvard University","institutionType":"ACADEMIC","alsoCalled":"Harvard Library","street1":"Harvard University","city":"Cambridge","state":"US-MA","postalCode":"02138","country":"US","latitude":42.379486,"longitude":-71.11653,"distance":5898.670972048441,"distanceUnit":"K","oclcNumber":"1088570224"},{"oclcSymbol":"ZCU","registryId":4861,"institutionName":"Columbia University in the City of New York","institutionType":"ACADEMIC","alsoCalled":"Columbia University Libraries","street1":"535 West 114th Street","city":"New York","state":"US-NY","postalCode":"10027-7035","country":"US","latitude":40.806236,"longitude":-73.96326,"distance":6192.750022328971,"distanceUnit":"K","oclcNumber":"1088570224"},{"oclcSymbol":"ZYU","registryId":1976,"institutionName":"New York University","institutionType":"ACADEMIC","alsoCalled":"Elmer Holmes Bobst Library","street1":"70 Washington Square South","city":"New York","state":"US-NY","postalCode":"10012","country":"US","latitude":40.729427,"longitude":-73.99722,"distance":6200.4045332524265,"distanceUnit":"K","oclcNumber":"1088570224"},{"oclcSymbol":"CNEAL","registryId":104498,"institutionName":"University of Toronto East Asian Library","institutionType":"ACADEMIC","street1":"130 St George St 8th Fl","city":"Toronto","state":"CA-ON","postalCode":"M5S 1A5","country":"CA","latitude":43.665096,"longitude":-79.399315,"distance":6332.484953290851,"distanceUnit":"K","oclcNumber":"1088570224"},{"oclcSymbol":"DLC","registryId":45266,"institutionName":"Library of Congress","institutionType":"REGIONAL_OR_NATIONAL","street1":"101 Independence Avenue, SE","city":"Washington","state":"US-DC","postalCode":"20540","country":"US","latitude":38.88863,"longitude":-77.00475,"distance":6528.602785373047,"distanceUnit":"K","oclcNumber":"1088570224"},{"oclcSymbol":"LNN","registryId":114986,"institutionName":"Library of Congress, Cataloging Directorate","institutionType":"REGIONAL_OR_NATIONAL","street1":"101 Independence Avenue, SE","city":"Washington","state":"US-DC","postalCode":"20540","country":"US","latitude":38.88697,"longitude":-77.00466,"distance":6528.719426450103,"distanceUnit":"K","oclcNumber":"1088570224"},{"oclcSymbol":"CGU","registryId":110147,"institutionName":"University of Chicago Library","institutionType":"ACADEMIC","street1":"1100 E. 57th Street","city":"Chicago","state":"US-IL","postalCode":"60637","country":"US","latitude":41.792255,"longitude":-87.599976,"distance":6968.537876102337,"distanceUnit":"K","oclcNumber":"1088570224"},{"oclcSymbol":"WAU","registryId":5725,"institutionName":"University of Washington Libraries","institutionType":"ACADEMIC","street1":"Box 352900","city":"Seattle","state":"US-WA","postalCode":"98195-2900","country":"US","latitude":47.65368,"longitude":-122.29911,"distance":8173.278736712033,"distanceUnit":"K","oclcNumber":"1088570224"},{"oclcSymbol":"CNZJL","registryId":37796,"institutionName":"Zhejiang Library","institutionType":"ACADEMIC","street1":"73 Shunguang Rd","city":"Hangzhou","postalCode":"310007","country":"CN","latitude":30.252625,"longitude":120.16508,"distance":8829.489417753091,"distanceUnit":"K","oclcNumber":"1088570224"},{"oclcSymbol":"CUY","registryId":5689,"institutionName":"UC Berkeley Libraries","institutionType":"ACADEMIC","street1":"133 Doe Library","street2":"University of California","city":"Berkeley","state":"US-CA","postalCode":"94720-6000","country":"US","latitude":37.87575,"longitude":-122.24341,"distance":9115.023971148703,"distanceUnit":"K","oclcNumber":"1088570224"},{"oclcSymbol":"U@L","registryId":65553,"institutionName":"University of Macau","institutionType":"ACADEMIC","street1":"Wu Yee Sun Library, University of Macau, E2","street2":"Avenida da Universidade, Taipa","city":"Macau","country":"CN","latitude":22.129786,"longitude":113.54599,"distance":9133.250593588788,"distanceUnit":"K","oclcNumber":"1088570224"},{"oclcSymbol":"L2U","registryId":53238,"institutionName":"Leiden University Libraries","institutionType":"ACADEMIC","alsoCalled":"Universitaire Bibliotheken Leiden","street1":"Witte Singel 27","city":"Leiden","postalCode":"2311 BG","country":"NL","latitude":52.157307,"longitude":4.481427,"distance":370.5077498902995,"distanceUnit":"K","oclcNumber":"1044765097"},{"oclcSymbol":"DLC","registryId":45266,"institutionName":"Library of Congress","institutionType":"REGIONAL_OR_NATIONAL","street1":"101 Independence Avenue, SE","city":"Washington","state":"US-DC","postalCode":"20540","country":"US","latitude":38.88863,"longitude":-77.00475,"distance":6528.602785373047,"distanceUnit":"K","oclcNumber":"1044765097"},{"oclcSymbol":"LNN","registryId":114986,"institutionName":"Library of Congress, Cataloging Directorate","institutionType":"REGIONAL_OR_NATIONAL","street1":"101 Independence Avenue, SE","city":"Washington","state":"US-DC","postalCode":"20540","country":"US","latitude":38.88697,"longitude":-77.00466,"distance":6528.719426450103,"distanceUnit":"K","oclcNumber":"1044765097"},{"oclcSymbol":"OBE","registryId":2304,"institutionName":"Oberlin College Libraries","institutionType":"ACADEMIC","street1":"148 West College Street","city":"Oberlin","state":"US-OH","postalCode":"44074-1532","country":"US","latitude":41.292927,"longitude":-82.2228,"distance":6680.410813469558,"distanceUnit":"K","oclcNumber":"1044765097"},{"oclcSymbol":"EMU","registryId":699,"institutionName":"Emory University","institutionType":"ACADEMIC","alsoCalled":"Robert W. Woodruff Library (Woodruff Main Library)","street1":"Robert W. Woodruff Library","street2":"540 Asbury Circle, NE","city":"Atlanta","state":"US-GA","postalCode":"30322","country":"US","latitude":33.79044,"longitude":-84.32282,"distance":7393.571775966326,"distanceUnit":"K","oclcNumber":"1044765097"},{"oclcSymbol":"WAU","registryId":5725,"institutionName":"University of Washington Libraries","institutionType":"ACADEMIC","street1":"Box 352900","city":"Seattle","state":"US-WA","postalCode":"98195-2900","country":"US","latitude":47.65368,"longitude":-122.29911,"distance":8173.278736712033,"distanceUnit":"K","oclcNumber":"1044765097"},{"oclcSymbol":"CVU","registryId":87775,"institutionName":"The Chinese University of Hong Kong","institutionType":"ACADEMIC","street1":"CUHK Library","city":"Shatin, N.T.,","country":"HK","latitude":22.419537,"longitude":114.20506,"distance":9150.441171752705,"distanceUnit":"K","oclcNumber":"1044765097"},{"oclcSymbol":"STF","registryId":3227,"institutionName":"Stanford University Libraries","institutionType":"ACADEMIC","street1":"Green Library","street2":"Arguello Way","city":"Stanford","state":"US-CA","postalCode":"94305-6004","country":"US","latitude":37.43137,"longitude":-122.16892,"distance":9154.907042870153,"distanceUnit":"K","oclcNumber":"1044765097"},{"oclcSymbol":"CLU","registryId":207,"institutionName":"University of California, Los Angeles","institutionType":"ACADEMIC","street1":"280 Charles E. Young Dr.","city":"Los Angeles","state":"US-CA","postalCode":"90255","country":"US","latitude":34.07501,"longitude":-118.441185,"distance":9308.793889187069,"distanceUnit":"K","oclcNumber":"1044765097"},{"oclcSymbol":"UMV","registryId":99063,"institutionName":"University of Melbourne Libraries","institutionType":"ACADEMIC","street1":"Baillieu Library","city":"Parkville","state":"AU-VI","postalCode":"3010","country":"AU","latitude":-37.798367,"longitude":144.95938,"distance":16319.051883096896,"distanceUnit":"K","oclcNumber":"1044765097"},{"oclcSymbol":"HUL","registryId":73876,"institutionName":"Harvard University","institutionType":"ACADEMIC","alsoCalled":"Harvard Library","street1":"Harvard University","city":"Cambridge","state":"US-MA","postalCode":"02138","country":"US","latitude":42.379486,"longitude":-71.11653,"distance":5898.670972048441,"distanceUnit":"K","oclcNumber":"1034831678"},{"oclcSymbol":"RBN","registryId":105271,"institutionName":"Brown University","institutionType":"ACADEMIC","alsoCalled":"Brown University Library","street1":"10 Prospect Street","street2":"Box A","city":"Providence","state":"US-RI","postalCode":"02912","country":"US","latitude":41.82642,"longitude":-71.40051,"distance":5955.0254414322635,"distanceUnit":"K","oclcNumber":"1034831678"},{"oclcSymbol":"ZCU","registryId":4861,"institutionName":"Columbia University in the City of New York","institutionType":"ACADEMIC","alsoCalled":"Columbia University Libraries","street1":"535 West 114th Street","city":"New York","state":"US-NY","postalCode":"10027-7035","country":"US","latitude":40.806236,"longitude":-73.96326,"distance":6192.750022328971,"distanceUnit":"K","oclcNumber":"1034831678"},{"oclcSymbol":"ZYU","registryId":1976,"institutionName":"New York University","institutionType":"ACADEMIC","alsoCalled":"Elmer Holmes Bobst Library","street1":"70 Washington Square South","city":"New York","state":"US-NY","postalCode":"10012","country":"US","latitude":40.729427,"longitude":-73.99722,"distance":6200.4045332524265,"distanceUnit":"K","oclcNumber":"1034831678"},{"oclcSymbol":"COO","registryId":3913,"institutionName":"Cornell University Library","institutionType":"ACADEMIC","street1":"201 Olin Library","city":"Ithaca","state":"US-NY","postalCode":"14853-5301","country":"US","latitude":42.44667,"longitude":-76.495735,"distance":6238.384448048609,"distanceUnit":"K","oclcNumber":"1034831678"},{"oclcSymbol":"DLC","registryId":45266,"institutionName":"Library of Congress","institutionType":"REGIONAL_OR_NATIONAL","street1":"101 Independence Avenue, SE","city":"Washington","state":"US-DC","postalCode":"20540","country":"US","latitude":38.88863,"longitude":-77.00475,"distance":6528.602785373047,"distanceUnit":"K","oclcNumber":"1034831678"},{"oclcSymbol":"LNN","registryId":114986,"institutionName":"Library of Congress, Cataloging Directorate","institutionType":"REGIONAL_OR_NATIONAL","street1":"101 Independence Avenue, SE","city":"Washington","state":"US-DC","postalCode":"20540","country":"US","latitude":38.88697,"longitude":-77.00466,"distance":6528.719426450103,"distanceUnit":"K","oclcNumber":"1034831678"},{"oclcSymbol":"CUV","registryId":5697,"institutionName":"University of California, Davis","institutionType":"ACADEMIC","alsoCalled":"Shields Library","street1":"100 NW Quad","city":"Davis","state":"US-CA","postalCode":"95616-5292","country":"US","latitude":38.539604,"longitude":-121.749374,"distance":9029.526591310521,"distanceUnit":"K","oclcNumber":"1034831678"},{"oclcSymbol":"SINTU","registryId":63471,"institutionName":"Nanyang Technological University","institutionType":"ACADEMIC","alsoCalled":"NTU Libraries","street1":"50 Nanyang Avenue","city":"Singapore","postalCode":"639798","country":"SG","latitude":1.347743,"longitude":103.68084,"distance":10247.810941621026,"distanceUnit":"K","oclcNumber":"1034831678"},{"oclcSymbol":"SINLB","registryId":63464,"institutionName":"National Library Board, Singapore","institutionType":"REGIONAL_OR_NATIONAL","street1":"National Library Board,","street2":"100 Victoria Street, #14-01, National Library Building","city":"Singapore","postalCode":"188064","country":"SG","latitude":1.297366,"longitude":103.85384,"distance":10264.410371761638,"distanceUnit":"K","oclcNumber":"1034831678"},{"oclcSymbol":"L2U","registryId":53238,"institutionName":"Leiden University Libraries","institutionType":"ACADEMIC","alsoCalled":"Universitaire Bibliotheken Leiden","street1":"Witte Singel 27","city":"Leiden","postalCode":"2311 BG","country":"NL","latitude":52.157307,"longitude":4.481427,"distance":370.5077498902995,"distanceUnit":"K","oclcNumber":"1037060649"},{"oclcSymbol":"LOA","registryId":53921,"institutionName":"SOAS University of London","institutionType":"ACADEMIC","alsoCalled":"University of London, School of Oriental and African Studies","street1":"Thornhaugh Street","street2":"Russell Square","city":"London","postalCode":"WC1H 0XG","country":"GB","latitude":51.52235,"longitude":-0.129275,"distance":638.0296394410018,"distanceUnit":"K","oclcNumber":"1037060649"},{"oclcSymbol":"HUL","registryId":73876,"institutionName":"Harvard University","institutionType":"ACADEMIC","alsoCalled":"Harvard Library","street1":"Harvard University","city":"Cambridge","state":"US-MA","postalCode":"02138","country":"US","latitude":42.379486,"longitude":-71.11653,"distance":5898.670972048441,"distanceUnit":"K","oclcNumber":"1037060649"},{"oclcSymbol":"PAU","registryId":2583,"institutionName":"University of Pennsylvania Libraries","institutionType":"ACADEMIC","alsoCalled":"Penn Libraries","street1":"Library","street2":"3420 Walnut St","city":"Philadelphia","state":"US-PA","postalCode":"19104-6206","country":"US","latitude":39.952724,"longitude":-75.194,"distance":6333.612472191301,"distanceUnit":"K","oclcNumber":"1037060649"},{"oclcSymbol":"DLC","registryId":45266,"institutionName":"Library of Congress","institutionType":"REGIONAL_OR_NATIONAL","street1":"101 Independence Avenue, SE","city":"Washington","state":"US-DC","postalCode":"20540","country":"US","latitude":38.88863,"longitude":-77.00475,"distance":6528.602785373047,"distanceUnit":"K","oclcNumber":"1037060649"},{"oclcSymbol":"LNN","registryId":114986,"institutionName":"Library of Congress, Cataloging Directorate","institutionType":"REGIONAL_OR_NATIONAL","street1":"101 Independence Avenue, SE","city":"Washington","state":"US-DC","postalCode":"20540","country":"US","latitude":38.88697,"longitude":-77.00466,"distance":6528.719426450103,"distanceUnit":"K","oclcNumber":"1037060649"},{"oclcSymbol":"XFF","registryId":3126,"institutionName":"Western Washington University","institutionType":"ACADEMIC","street1":"Haggard Hall, MS 9103","street2":"516 High Street","city":"Bellingham","state":"US-WA","postalCode":"98225-9103","country":"US","latitude":48.75617,"longitude":-122.50205,"distance":8075.085058565434,"distanceUnit":"K","oclcNumber":"1037060649"},{"oclcSymbol":"CUY","registryId":5689,"institutionName":"UC Berkeley Libraries","institutionType":"ACADEMIC","street1":"133 Doe Library","street2":"University of California","city":"Berkeley","state":"US-CA","postalCode":"94720-6000","country":"US","latitude":37.87575,"longitude":-122.24341,"distance":9115.023971148703,"distanceUnit":"K","oclcNumber":"1037060649"},{"oclcSymbol":"HUL","registryId":73876,"institutionName":"Harvard University","institutionType":"ACADEMIC","alsoCalled":"Harvard Library","street1":"Harvard University","city":"Cambridge","state":"US-MA","postalCode":"02138","country":"US","latitude":42.379486,"longitude":-71.11653,"distance":5898.670972048441,"distanceUnit":"K","oclcNumber":"1060198810"},{"oclcSymbol":"COO","registryId":3913,"institutionName":"Cornell University Library","institutionType":"ACADEMIC","street1":"201 Olin Library","city":"Ithaca","state":"US-NY","postalCode":"14853-5301","country":"US","latitude":42.44667,"longitude":-76.495735,"distance":6238.384448048609,"distanceUnit":"K","oclcNumber":"1060198810"},{"oclcSymbol":"PUL","registryId":1791,"institutionName":"Princeton University Library","institutionType":"ACADEMIC","alsoCalled":"Firestone Library","street1":"1 Washington Rd","city":"Princeton","state":"US-NJ","postalCode":"08544-2098","country":"US","latitude":40.349854,"longitude":-74.65912,"distance":6270.382818212047,"distanceUnit":"K","oclcNumber":"1060198810"},{"oclcSymbol":"DLC","registryId":45266,"institutionName":"Library of Congress","institutionType":"REGIONAL_OR_NATIONAL","street1":"101 Independence Avenue, SE","city":"Washington","state":"US-DC","postalCode":"20540","country":"US","latitude":38.88863,"longitude":-77.00475,"distance":6528.602785373047,"distanceUnit":"K","oclcNumber":"1060198810"},{"oclcSymbol":"LNN","registryId":114986,"institutionName":"Library of Congress, Cataloging Directorate","institutionType":"REGIONAL_OR_NATIONAL","street1":"101 Independence Avenue, SE","city":"Washington","state":"US-DC","postalCode":"20540","country":"US","latitude":38.88697,"longitude":-77.00466,"distance":6528.719426450103,"distanceUnit":"K","oclcNumber":"1060198810"},{"oclcSymbol":"CGU","registryId":110147,"institutionName":"University of Chicago Library","institutionType":"ACADEMIC","street1":"1100 E. 57th Street","city":"Chicago","state":"US-IL","postalCode":"60637","country":"US","latitude":41.792255,"longitude":-87.599976,"distance":6968.537876102337,"distanceUnit":"K","oclcNumber":"1060198810"},{"oclcSymbol":"CNZJL","registryId":37796,"institutionName":"Zhejiang Library","institutionType":"ACADEMIC","street1":"73 Shunguang Rd","city":"Hangzhou","postalCode":"310007","country":"CN","latitude":30.252625,"longitude":120.16508,"distance":8829.489417753091,"distanceUnit":"K","oclcNumber":"1060198810"},{"oclcSymbol":"ZAS","registryId":5620,"institutionName":"University of California Los Angeles","institutionType":"ACADEMIC","alsoCalled":"Southern Regional Library Facility","street1":"Southern Regional Libr Fac","street2":"305 de Neve Drive, Box 951388","city":"Los Angeles","state":"US-CA","postalCode":"90095-1388","country":"US","latitude":34.05678,"longitude":-118.24259,"distance":9301.110233238789,"distanceUnit":"K","oclcNumber":"1060198810"},{"oclcSymbol":"CLU","registryId":207,"institutionName":"University of California, Los Angeles","institutionType":"ACADEMIC","street1":"280 Charles E. Young Dr.","city":"Los Angeles","state":"US-CA","postalCode":"90255","country":"US","latitude":34.07501,"longitude":-118.441185,"distance":9308.793889187069,"distanceUnit":"K","oclcNumber":"1060198810"},{"oclcSymbol":"HUL","registryId":73876,"institutionName":"Harvard University","institutionType":"ACADEMIC","alsoCalled":"Harvard Library","street1":"Harvard University","city":"Cambridge","state":"US-MA","postalCode":"02138","country":"US","latitude":42.379486,"longitude":-71.11653,"distance":5898.670972048441,"distanceUnit":"K","oclcNumber":"1090393831"},{"oclcSymbol":"YUS","registryId":544,"institutionName":"Yale University Library","institutionType":"ACADEMIC","street1":"Sterling Mem Libr 130 Wall St","street2":"PO Box 208240","city":"New Haven","state":"US-CT","postalCode":"06520-8240","country":"US","latitude":41.309837,"longitude":-72.92811,"distance":6090.136001032786,"distanceUnit":"K","oclcNumber":"1090393831"},{"oclcSymbol":"ZCU","registryId":4861,"institutionName":"Columbia University in the City of New York","institutionType":"ACADEMIC","alsoCalled":"Columbia University Libraries","street1":"535 West 114th Street","city":"New York","state":"US-NY","postalCode":"10027-7035","country":"US","latitude":40.806236,"longitude":-73.96326,"distance":6192.750022328971,"distanceUnit":"K","oclcNumber":"1090393831"},{"oclcSymbol":"PAU","registryId":2583,"institutionName":"University of Pennsylvania Libraries","institutionType":"ACADEMIC","alsoCalled":"Penn Libraries","street1":"Library","street2":"3420 Walnut St","city":"Philadelphia","state":"US-PA","postalCode":"19104-6206","country":"US","latitude":39.952724,"longitude":-75.194,"distance":6333.612472191301,"distanceUnit":"K","oclcNumber":"1090393831"},{"oclcSymbol":"DLC","registryId":45266,"institutionName":"Library of Congress","institutionType":"REGIONAL_OR_NATIONAL","street1":"101 Independence Avenue, SE","city":"Washington","state":"US-DC","postalCode":"20540","country":"US","latitude":38.88863,"longitude":-77.00475,"distance":6528.602785373047,"distanceUnit":"K","oclcNumber":"1090393831"},{"oclcSymbol":"LNN","registryId":114986,"institutionName":"Library of Congress, Cataloging Directorate","institutionType":"REGIONAL_OR_NATIONAL","street1":"101 Independence Avenue, SE","city":"Washington","state":"US-DC","postalCode":"20540","country":"US","latitude":38.88697,"longitude":-77.00466,"distance":6528.719426450103,"distanceUnit":"K","oclcNumber":"1090393831"},{"oclcSymbol":"EMU","registryId":699,"institutionName":"Emory University","institutionType":"ACADEMIC","alsoCalled":"Robert W. Woodruff Library (Woodruff Main Library)","street1":"Robert W. Woodruff Library","street2":"540 Asbury Circle, NE","city":"Atlanta","state":"US-GA","postalCode":"30322","country":"US","latitude":33.79044,"longitude":-84.32282,"distance":7393.571775966326,"distanceUnit":"K","oclcNumber":"1090393831"},{"oclcSymbol":"CNZJL","registryId":37796,"institutionName":"Zhejiang Library","institutionType":"ACADEMIC","street1":"73 Shunguang Rd","city":"Hangzhou","postalCode":"310007","country":"CN","latitude":30.252625,"longitude":120.16508,"distance":8829.489417753091,"distanceUnit":"K","oclcNumber":"1090393831"},{"oclcSymbol":"CLU","registryId":207,"institutionName":"University of California, Los Angeles","institutionType":"ACADEMIC","street1":"280 Charles E. Young Dr.","city":"Los Angeles","state":"US-CA","postalCode":"90255","country":"US","latitude":34.07501,"longitude":-118.441185,"distance":9308.793889187069,"distanceUnit":"K","oclcNumber":"1090393831"},{"oclcSymbol":"YUS","registryId":544,"institutionName":"Yale University Library","institutionType":"ACADEMIC","street1":"Sterling Mem Libr 130 Wall St","street2":"PO Box 208240","city":"New Haven","state":"US-CT","postalCode":"06520-8240","country":"US","latitude":41.309837,"longitude":-72.92811,"distance":6090.136001032786,"distanceUnit":"K","oclcNumber":"1037081316"},{"oclcSymbol":"COO","registryId":3913,"institutionName":"Cornell University Library","institutionType":"ACADEMIC","street1":"201 Olin Library","city":"Ithaca","state":"US-NY","postalCode":"14853-5301","country":"US","latitude":42.44667,"longitude":-76.495735,"distance":6238.384448048609,"distanceUnit":"K","oclcNumber":"1037081316"},{"oclcSymbol":"PAU","registryId":2583,"institutionName":"University of Pennsylvania Libraries","institutionType":"ACADEMIC","alsoCalled":"Penn Libraries","street1":"Library","street2":"3420 Walnut St","city":"Philadelphia","state":"US-PA","postalCode":"19104-6206","country":"US","latitude":39.952724,"longitude":-75.194,"distance":6333.612472191301,"distanceUnit":"K","oclcNumber":"1037081316"},{"oclcSymbol":"MNU","registryId":5360,"institutionName":"University of Minnesota, Twin Cities","institutionType":"ACADEMIC","street1":"499 Wilson Libr","street2":"309 19th Ave S","city":"Minneapolis","state":"US-MN","postalCode":"55455-0414","country":"US","latitude":44.976074,"longitude":-93.23086,"distance":7042.418768240276,"distanceUnit":"K","oclcNumber":"1037081316"},{"oclcSymbol":"EMU","registryId":699,"institutionName":"Emory University","institutionType":"ACADEMIC","alsoCalled":"Robert W. Woodruff Library (Woodruff Main Library)","street1":"Robert W. Woodruff Library","street2":"540 Asbury Circle, NE","city":"Atlanta","state":"US-GA","postalCode":"30322","country":"US","latitude":33.79044,"longitude":-84.32282,"distance":7393.571775966326,"distanceUnit":"K","oclcNumber":"1037081316"},{"oclcSymbol":"LE1","registryId":87591,"institutionName":"University of Adelaide Library","institutionType":"ACADEMIC","alsoCalled":"Barr Smith Library; University of Adelaide Libraries","street1":"North Terrace","city":"Adelaide","state":"AU-SA","postalCode":"5005","country":"AU","latitude":-34.91935,"longitude":138.60513,"distance":15672.76995773374,"distanceUnit":"K","oclcNumber":"1037081316"},{"oclcSymbol":"UMV","registryId":99063,"institutionName":"University of Melbourne Libraries","institutionType":"ACADEMIC","street1":"Baillieu Library","city":"Parkville","state":"AU-VI","postalCode":"3010","country":"AU","latitude":-37.798367,"longitude":144.95938,"distance":16319.051883096896,"distanceUnit":"K","oclcNumber":"1037081316"},{"oclcSymbol":"ZCU","registryId":4861,"institutionName":"Columbia University in the City of New York","institutionType":"ACADEMIC","alsoCalled":"Columbia University Libraries","street1":"535 West 114th Street","city":"New York","state":"US-NY","postalCode":"10027-7035","country":"US","latitude":40.806236,"longitude":-73.96326,"distance":6192.750022328971,"distanceUnit":"K","oclcNumber":"1065120696"},{"oclcSymbol":"DLC","registryId":45266,"institutionName":"Library of Congress","institutionType":"REGIONAL_OR_NATIONAL","street1":"101 Independence Avenue, SE","city":"Washington","state":"US-DC","postalCode":"20540","country":"US","latitude":38.88863,"longitude":-77.00475,"distance":6528.602785373047,"distanceUnit":"K","oclcNumber":"1065120696"},{"oclcSymbol":"LNN","registryId":114986,"institutionName":"Library of Congress, Cataloging Directorate","institutionType":"REGIONAL_OR_NATIONAL","street1":"101 Independence Avenue, SE","city":"Washington","state":"US-DC","postalCode":"20540","country":"US","latitude":38.88697,"longitude":-77.00466,"distance":6528.719426450103,"distanceUnit":"K","oclcNumber":"1065120696"},{"oclcSymbol":"CGU","registryId":110147,"institutionName":"University of Chicago Library","institutionType":"ACADEMIC","street1":"1100 E. 57th Street","city":"Chicago","state":"US-IL","postalCode":"60637","country":"US","latitude":41.792255,"longitude":-87.599976,"distance":6968.537876102337,"distanceUnit":"K","oclcNumber":"1065120696"},{"oclcSymbol":"CNZJL","registryId":37796,"institutionName":"Zhejiang Library","institutionType":"ACADEMIC","street1":"73 Shunguang Rd","city":"Hangzhou","postalCode":"310007","country":"CN","latitude":30.252625,"longitude":120.16508,"distance":8829.489417753091,"distanceUnit":"K","oclcNumber":"1065120696"},{"oclcSymbol":"CUY","registryId":5689,"institutionName":"UC Berkeley Libraries","institutionType":"ACADEMIC","street1":"133 Doe Library","street2":"University of California","city":"Berkeley","state":"US-CA","postalCode":"94720-6000","country":"US","latitude":37.87575,"longitude":-122.24341,"distance":9115.023971148703,"distanceUnit":"K","oclcNumber":"1065120696"},{"oclcSymbol":"STF","registryId":3227,"institutionName":"Stanford University Libraries","institutionType":"ACADEMIC","street1":"Green Library","street2":"Arguello Way","city":"Stanford","state":"US-CA","postalCode":"94305-6004","country":"US","latitude":37.43137,"longitude":-122.16892,"distance":9154.907042870153,"distanceUnit":"K","oclcNumber":"1065120696"},{"oclcSymbol":"CUI","registryId":5656,"institutionName":"University of California, Irvine","institutionType":"ACADEMIC","alsoCalled":"Langson Library","street1":"Univ of California Irvine","city":"Irvine","state":"US-CA","postalCode":"92697","country":"US","latitude":33.647266,"longitude":-117.841034,"distance":9320.915822937264,"distanceUnit":"K","oclcNumber":"1065120696"},{"oclcSymbol":"DRB","registryId":1742,"institutionName":"Dartmouth Library","institutionType":"ACADEMIC","street1":"6025 Baker-Berry Library","city":"Hanover","state":"US-NH","postalCode":"03755-3525","country":"US","latitude":43.705456,"longitude":-72.28883,"distance":5884.030903835973,"distanceUnit":"K","oclcNumber":"1077377732"},